[
   {
      "name": "Razvilka",
      "lat": 55.591667,
      "lon": 37.740833
   },
   {
      "name": "Moscow",
      "lat": 55.752220,
      "lon": 37.615555
   },
   {
      "name": "Firozpur Jhirka",
      "lat": 27.799999,
      "lon": 76.949997	
   },
   {
      "name": "Kathmandu",
      "lat": 27.716667,
      "lon": 85.316666	
   },
   {
      "name": "Kiev",
      "lat": 50.433334,
      "lon": 30.516666	
   },
   {
      "name": "Pokhara",
      "lat": 28.233334,
      "lon": 83.983330	
   },
   {
      "name": "Merida",
      "lat": 8.598333,
      "lon": -71.144997	
   },
   {
      "name": "Delhi",
      "lat": 28.666668,
      "lon": 77.216667	
   },
   {
      "name": "Reshetnikovo",
      "lat": 56.450001,
      "lon": 36.566666	
   },
   {
      "name": "Ciudad Bolivar",
      "lat": 8.122222,
      "lon": -63.549721	
   },
   {
      "name": "Marfino",
      "lat": 55.702778,
      "lon": 37.382221	
   },
   {
      "name": "Zhukovskiy",
      "lat": 55.595280,
      "lon": 38.120277	
   },
   {
      "name": "Reutov",
      "lat": 55.759445,
      "lon": 37.861668	
   },
   {
      "name": "Kurovskoye",
      "lat": 55.578335,
      "lon": 38.910831	
   },
   {
      "name": "Zheleznodorozhnyy",
      "lat": 55.750278,
      "lon": 38.004166	
   },
   {
      "name": "Golitsyno",
      "lat": 55.612221,
      "lon": 36.983334	
   },
   {
      "name": "Petrozavodsk",
      "lat": 61.784912,
      "lon": 34.346909	
   },
   {
      "name": "Saint Petersburg",
      "lat": 59.894444,
      "lon": 30.264168	
   },
   {
      "name": "Klimovsk",
      "lat": 55.364723,
      "lon": 37.525002	
   },
   {
      "name": "Novosibirsk",
      "lat": 55.041111,
      "lon": 82.934441	
   },
   {
      "name": "Donetsk",
      "lat": 48.000000,
      "lon": 37.799999	
   },
   {
      "name": "Istra",
      "lat": 55.917778,
      "lon": 36.864166	
   },
   {
      "name": "Bakhchysaray",
      "lat": 44.750000,
      "lon": 33.866669	
   },
   {
      "name": "Chekhov",
      "lat": 55.143055,
      "lon": 37.471111	
   },
   {
      "name": "Lyubuchany",
      "lat": 55.251110,
      "lon": 37.545555	
   },
   {
      "name": "Vostryakovo",
      "lat": 55.400555,
      "lon": 37.811111	
   },
   {
      "name": "Boryspil",
      "lat": 50.349998,
      "lon": 30.950001	
   },
   {
      "name": "Dubna",
      "lat": 56.733334,
      "lon": 37.166668	
   },
   {
      "name": "Druzhba",
      "lat": 55.885555,
      "lon": 37.740276	
   },
   {
      "name": "Bronnitsy",
      "lat": 55.419445,
      "lon": 38.270832	
   },
   {
      "name": "Dzerzhinskiy",
      "lat": 55.628613,
      "lon": 37.846943	
   },
   {
      "name": "Lytkarino",
      "lat": 55.581390,
      "lon": 37.905834	
   },
   {
      "name": "Mytishchi",
      "lat": 55.908890,
      "lon": 37.733891	
   },
   {
      "name": "Pushkino",
      "lat": 56.017223,
      "lon": 37.866669	
   },
   {
      "name": "Pravdinskiy",
      "lat": 56.066666,
      "lon": 37.849998	
   },
   {
      "name": "Zelenogradskiy",
      "lat": 56.099998,
      "lon": 37.916668	
   },
   {
      "name": "Ashukino",
      "lat": 56.160000,
      "lon": 37.950001	
   },
   {
      "name": "Khotkovo",
      "lat": 56.256989,
      "lon": 37.995441	
   },
   {
      "name": "Semkhoz",
      "lat": 56.283333,
      "lon": 38.066666	
   },
   {
      "name": "Sergiyev Posad",
      "lat": 56.299999,
      "lon": 38.133331	
   },
   {
      "name": "Arsaki",
      "lat": 56.380001,
      "lon": 38.480000	
   },
   {
      "name": "Strunino",
      "lat": 56.383331,
      "lon": 38.566666	
   },
   {
      "name": "Aleksandrov",
      "lat": 56.400002,
      "lon": 38.709999	
   },
   {
      "name": "Karabanovo",
      "lat": 56.316666,
      "lon": 38.700001	
   },
   {
      "name": "Kirzhach",
      "lat": 56.150002,
      "lon": 38.866669	
   },
   {
      "name": "Orekhovo-Zuyevo",
      "lat": 55.810833,
      "lon": 38.971943	
   },
   {
      "name": "Likino-Dulevo",
      "lat": 55.711666,
      "lon": 38.954445	
   },
   {
      "name": "Davydovo",
      "lat": 55.609722,
      "lon": 38.856945	
   },
   {
      "name": "Ilinskiy Pogost",
      "lat": 55.477222,
      "lon": 38.911945	
   },
   {
      "name": "Yegoryevsk",
      "lat": 55.378334,
      "lon": 39.041111	
   },
   {
      "name": "Fosforitnyy",
      "lat": 55.326111,
      "lon": 38.900002	
   },
   {
      "name": "Khorlovo",
      "lat": 55.335278,
      "lon": 38.813057	
   },
   {
      "name": "Lopatinskiy",
      "lat": 55.340557,
      "lon": 38.725555	
   },
   {
      "name": "Malino",
      "lat": 55.111111,
      "lon": 38.180000	
   },
   {
      "name": "Mikhnevo",
      "lat": 55.127220,
      "lon": 37.952221	
   },
   {
      "name": "Mikhnevo",
      "lat": 55.134724,
      "lon": 37.944721	
   },
   {
      "name": "Stolbovaya",
      "lat": 55.252777,
      "lon": 37.485279	
   },
   {
      "name": "Kubinka",
      "lat": 55.583889,
      "lon": 36.689999	
   },
   {
      "name": "Povarovo",
      "lat": 56.066666,
      "lon": 37.049999	
   },
   {
      "name": "Iksha",
      "lat": 56.166668,
      "lon": 37.516666	
   },
   {
      "name": "Dmitrov",
      "lat": 56.349998,
      "lon": 37.516666	
   },
   {
      "name": "Skoropuskovskiy",
      "lat": 56.366669,
      "lon": 38.166668	
   },
   {
      "name": "Mamontovka",
      "lat": 55.999443,
      "lon": 37.814167	
   },
   {
      "name": "Shchebetovka",
      "lat": 44.933334,
      "lon": 35.150002	
   },
   {
      "name": "New Delhi",
      "lat": 28.612820,
      "lon": 77.231140	
   },
   {
      "name": "Faridabad",
      "lat": 28.433332,
      "lon": 77.316666	
   },
   {
      "name": "Palwal",
      "lat": 28.150000,
      "lon": 77.333336	
   },
   {
      "name": "Hodal",
      "lat": 27.900000,
      "lon": 77.366669	
   },
   {
      "name": "Kosi",
      "lat": 27.799999,
      "lon": 77.433334	
   },
   {
      "name": "Chhata",
      "lat": 27.716667,
      "lon": 77.500000	
   },
   {
      "name": "Mathura",
      "lat": 27.500000,
      "lon": 77.683334	
   },
   {
      "name": "Gokul",
      "lat": 27.450001,
      "lon": 77.716667	
   },
   {
      "name": "Farah",
      "lat": 27.333332,
      "lon": 77.766670	
   },
   {
      "name": "Agra",
      "lat": 27.183332,
      "lon": 78.016670	
   },
   {
      "name": "Kiraoli",
      "lat": 27.150000,
      "lon": 77.783333	
   },
   {
      "name": "Fatehpur Sikri",
      "lat": 27.100000,
      "lon": 77.666664	
   },
   {
      "name": "Bharatpur",
      "lat": 27.216667,
      "lon": 77.483330	
   },
   {
      "name": "Mahwah",
      "lat": 27.049999,
      "lon": 76.933334	
   },
   {
      "name": "Dausa",
      "lat": 26.883333,
      "lon": 76.333336	
   },
   {
      "name": "Basi",
      "lat": 26.833332,
      "lon": 76.033333	
   },
   {
      "name": "Jaipur",
      "lat": 26.916668,
      "lon": 75.816666	
   },
   {
      "name": "Manoharpur",
      "lat": 27.299999,
      "lon": 75.949997	
   },
   {
      "name": "Shahpura",
      "lat": 27.383333,
      "lon": 75.966667	
   },
   {
      "name": "Ciudad Guayana",
      "lat": 8.353333,
      "lon": -62.652779	
   },
   {
      "name": "Upata",
      "lat": 8.008611,
      "lon": -62.398888	
   },
   {
      "name": "Borovoy",
      "lat": 64.583336,
      "lon": 32.133331	
   },
   {
      "name": "Vostochnyy",
      "lat": 55.816666,
      "lon": 37.866669	
   },
   {
      "name": "El Vigia",
      "lat": 8.621944,
      "lon": -71.650558	
   },
   {
      "name": "Ejido",
      "lat": 8.551389,
      "lon": -71.237503	
   },
   {
      "name": "Vnukovo",
      "lat": 55.615002,
      "lon": 37.219166	
   },
   {
      "name": "Obninsk",
      "lat": 55.096943,
      "lon": 36.610279	
   },
   {
      "name": "Mstikhino",
      "lat": 54.559471,
      "lon": 36.127769	
   },
   {
      "name": "Babynino",
      "lat": 54.389999,
      "lon": 35.730000	
   },
   {
      "name": "Navlya",
      "lat": 52.828056,
      "lon": 34.498890	
   },
   {
      "name": "Altukhovo",
      "lat": 52.669998,
      "lon": 34.360001	
   },
   {
      "name": "Kokorevka",
      "lat": 52.587223,
      "lon": 34.277779	
   },
   {
      "name": "Suzemka",
      "lat": 52.317780,
      "lon": 34.068890	
   },
   {
      "name": "Druzhba",
      "lat": 52.042778,
      "lon": 33.945278	
   },
   {
      "name": "Yampil",
      "lat": 51.950001,
      "lon": 33.783333	
   },
   {
      "name": "Bobrovytsya",
      "lat": 50.750000,
      "lon": 31.383333	
   },
   {
      "name": "Khimki",
      "lat": 55.901669,
      "lon": 37.437500	
   },
   {
      "name": "Krasnogorsk",
      "lat": 55.822498,
      "lon": 37.318054	
   },
   {
      "name": "Nemchinovka",
      "lat": 55.722778,
      "lon": 37.366390	
   },
   {
      "name": "Vatutinki",
      "lat": 55.498333,
      "lon": 37.332500	
   },
   {
      "name": "Yasnogorsk",
      "lat": 54.480278,
      "lon": 37.697498	
   },
   {
      "name": "Zasechnoye",
      "lat": 53.109165,
      "lon": 45.076389	
   },
   {
      "name": "Russkiy Kameshkir",
      "lat": 52.858891,
      "lon": 46.089169	
   },
   {
      "name": "Alekseyevka",
      "lat": 52.299999,
      "lon": 48.020000	
   },
   {
      "name": "Oral",
      "lat": 51.233334,
      "lon": 51.366669	
   },
   {
      "name": "Bayganin",
      "lat": 48.694721,
      "lon": 55.874168	
   },
   {
      "name": "Kotputli",
      "lat": 27.716667,
      "lon": 76.199997	
   },
   {
      "name": "Behror",
      "lat": 27.883333,
      "lon": 76.283333	
   },
   {
      "name": "Bawal",
      "lat": 28.083332,
      "lon": 76.583336	
   },
   {
      "name": "Dharuhera",
      "lat": 28.216667,
      "lon": 76.783333	
   },
   {
      "name": "Gurgaon",
      "lat": 28.466667,
      "lon": 77.033333	
   },
   {
      "name": "Naberezhnyye Chelny",
      "lat": 55.756111,
      "lon": 52.428890	
   },
   {
      "name": "Minsk",
      "lat": 53.900002,
      "lon": 27.566668	
   },
   {
      "name": "Bugulma",
      "lat": 54.549999,
      "lon": 52.799999	
   },
   {
      "name": "Karabash",
      "lat": 54.700001,
      "lon": 52.566666	
   },
   {
      "name": "Ussuriysk",
      "lat": 43.798611,
      "lon": 131.950836	
   },
   {
      "name": "Vorokhta",
      "lat": 48.286945,
      "lon": 24.571943	
   },
   {
      "name": "Varanasi",
      "lat": 25.333332,
      "lon": 83.000000	
   },
   {
      "name": "Ramnagar",
      "lat": 25.283333,
      "lon": 83.033333	
   },
   {
      "name": "Mughal Sarai",
      "lat": 25.299999,
      "lon": 83.116669	
   },
   {
      "name": "Satna",
      "lat": 24.583332,
      "lon": 80.833336	
   },
   {
      "name": "Panna",
      "lat": 24.716667,
      "lon": 80.199997	
   },
   {
      "name": "Bulandshahr",
      "lat": 28.400000,
      "lon": 77.849998	
   },
   {
      "name": "Shikarpur",
      "lat": 28.283333,
      "lon": 78.016670	
   },
   {
      "name": "Dibai",
      "lat": 28.216667,
      "lon": 78.250000	
   },
   {
      "name": "Naraura",
      "lat": 28.200001,
      "lon": 78.383331	
   },
   {
      "name": "Sahaswan",
      "lat": 28.083332,
      "lon": 78.750000	
   },
   {
      "name": "Ujhani",
      "lat": 28.016666,
      "lon": 79.016670	
   },
   {
      "name": "Kakrala",
      "lat": 27.900000,
      "lon": 79.199997	
   },
   {
      "name": "Usehat",
      "lat": 27.816668,
      "lon": 79.250000	
   },
   {
      "name": "Jalalabad",
      "lat": 27.716667,
      "lon": 79.666664	
   },
   {
      "name": "Allahganj",
      "lat": 27.549999,
      "lon": 79.683334	
   },
   {
      "name": "Hardoi",
      "lat": 27.416668,
      "lon": 80.116669	
   },
   {
      "name": "Sandila",
      "lat": 27.083332,
      "lon": 80.516670	
   },
   {
      "name": "Malihabad",
      "lat": 26.916668,
      "lon": 80.716667	
   },
   {
      "name": "Kakori",
      "lat": 26.883333,
      "lon": 80.800003	
   },
   {
      "name": "Lucknow",
      "lat": 26.850000,
      "lon": 80.916664	
   },
   {
      "name": "Goshainganj",
      "lat": 26.766666,
      "lon": 81.116669	
   },
   {
      "name": "Satrikh",
      "lat": 26.866667,
      "lon": 81.199997	
   },
   {
      "name": "Zaidpur",
      "lat": 26.833332,
      "lon": 81.333336	
   },
   {
      "name": "Tikaitnagar",
      "lat": 26.950001,
      "lon": 81.583336	
   },
   {
      "name": "Bhairahawa",
      "lat": 27.500000,
      "lon": 83.449997	
   },
   {
      "name": "Bharatpur",
      "lat": 27.683332,
      "lon": 84.433334	
   },
   {
      "name": "Kirtipur",
      "lat": 27.666668,
      "lon": 85.283333	
   },
   {
      "name": "Patan",
      "lat": 27.666668,
      "lon": 85.333336	
   },
   {
      "name": "Stavyshche",
      "lat": 50.400002,
      "lon": 29.533333	
   },
   {
      "name": "Brovary",
      "lat": 50.500000,
      "lon": 30.766666	
   },
   {
      "name": "Semypolky",
      "lat": 50.716667,
      "lon": 30.933332	
   },
   {
      "name": "Barvikha",
      "lat": 55.740002,
      "lon": 37.270000	
   },
   {
      "name": "Petrovo-Dalneye",
      "lat": 55.746113,
      "lon": 37.181110	
   },
   {
      "name": "Nikolina Gora",
      "lat": 55.734444,
      "lon": 37.041389	
   },
   {
      "name": "Zvenigorod",
      "lat": 55.733334,
      "lon": 36.847500	
   },
   {
      "name": "Tuchkovo",
      "lat": 55.601112,
      "lon": 36.468056	
   },
   {
      "name": "Kratovo",
      "lat": 55.586945,
      "lon": 38.204723	
   },
   {
      "name": "Konobeyevo",
      "lat": 55.406387,
      "lon": 38.662498	
   },
   {
      "name": "Voskresensk",
      "lat": 55.312500,
      "lon": 38.663612	
   },
   {
      "name": "Rechitsy",
      "lat": 55.597778,
      "lon": 38.463890	
   },
   {
      "name": "Monino",
      "lat": 55.838055,
      "lon": 38.194443	
   },
   {
      "name": "Obukhovo",
      "lat": 55.832779,
      "lon": 38.272499	
   },
   {
      "name": "Imeni Vorovskogo",
      "lat": 55.723331,
      "lon": 38.341389	
   },
   {
      "name": "Elektrostal",
      "lat": 55.791943,
      "lon": 38.442223	
   },
   {
      "name": "Pavlovskiy Posad",
      "lat": 55.784721,
      "lon": 38.650555	
   },
   {
      "name": "Drezna",
      "lat": 55.745834,
      "lon": 38.849724	
   },
   {
      "name": "Opalikha",
      "lat": 55.827499,
      "lon": 37.255001	
   },
   {
      "name": "Novopetrovskoye",
      "lat": 55.992779,
      "lon": 36.471943	
   },
   {
      "name": "Verbilki",
      "lat": 56.533333,
      "lon": 37.599998	
   },
   {
      "name": "Ashitkovo",
      "lat": 55.439999,
      "lon": 38.590000	
   },
   {
      "name": "Shaturtorf",
      "lat": 55.567223,
      "lon": 39.416943	
   },
   {
      "name": "Bolshiye Vyazemy",
      "lat": 55.633331,
      "lon": 36.983334	
   },
   {
      "name": "Zhavoronki",
      "lat": 55.649723,
      "lon": 37.104168	
   },
   {
      "name": "Medvezhyegorsk",
      "lat": 62.916668,
      "lon": 34.466667	
   },
   {
      "name": "Obolensk",
      "lat": 54.977409,
      "lon": 37.224483	
   },
   {
      "name": "Serpukhov",
      "lat": 54.921391,
      "lon": 37.410831	
   },
   {
      "name": "Pyaozerskiy",
      "lat": 65.833336,
      "lon": 31.166668	
   },
   {
      "name": "Loukhi",
      "lat": 66.076385,
      "lon": 33.038055	
   },
   {
      "name": "Konakovo",
      "lat": 56.700001,
      "lon": 36.766666	
   },
   {
      "name": "Novozavidovskiy",
      "lat": 56.549999,
      "lon": 36.433334	
   },
   {
      "name": "Kozlovo",
      "lat": 56.516666,
      "lon": 36.266666	
   },
   {
      "name": "Loni",
      "lat": 28.750000,
      "lon": 77.283333	
   },
   {
      "name": "Mitzpe Ramon",
      "lat": 30.609444,
      "lon": 34.801109	
   },
   {
      "name": "Raipur",
      "lat": 26.049999,
      "lon": 74.016670	
   },
   {
      "name": "Terny",
      "lat": 50.983334,
      "lon": 33.983334	
   },
   {
      "name": "Donskoye",
      "lat": 52.775833,
      "lon": 41.488335	
   },
   {
      "name": "Yaremche",
      "lat": 48.458332,
      "lon": 24.551945	
   },
   {
      "name": "Plotnikovo",
      "lat": 55.024723,
      "lon": 85.943611	
   },
   {
      "name": "Novopodrezkovo",
      "lat": 55.942780,
      "lon": 37.346668	
   },
   {
      "name": "Skhodnya",
      "lat": 55.955833,
      "lon": 37.297222	
   },
   {
      "name": "Zelenograd",
      "lat": 55.982498,
      "lon": 37.181389	
   },
   {
      "name": "Alabushevo",
      "lat": 56.009998,
      "lon": 37.150002	
   },
   {
      "name": "Petrodvorets",
      "lat": 59.884998,
      "lon": 29.895832	
   },
   {
      "name": "Strelna",
      "lat": 59.848331,
      "lon": 30.026112	
   },
   {
      "name": "Horad Smalyavichy",
      "lat": 54.033333,
      "lon": 28.084167	
   },
   {
      "name": "Horad Zhodzina",
      "lat": 54.098331,
      "lon": 28.332500	
   },
   {
      "name": "Namche Bazar",
      "lat": 27.816668,
      "lon": 86.716667	
   },
   {
      "name": "Udaipur",
      "lat": 24.571167,
      "lon": 73.691826	
   },
   {
      "name": "Pali",
      "lat": 25.766666,
      "lon": 73.333336	
   },
   {
      "name": "Jodhpur",
      "lat": 26.286667,
      "lon": 73.029999	
   },
   {
      "name": "Jaisalmer",
      "lat": 26.914684,
      "lon": 70.918076	
   },
   {
      "name": "Pushkar",
      "lat": 26.500000,
      "lon": 74.550003	
   },
   {
      "name": "Ajmer",
      "lat": 26.450001,
      "lon": 74.633331	
   },
   {
      "name": "Kanpur",
      "lat": 26.466667,
      "lon": 80.349998	
   },
   {
      "name": "Gaya",
      "lat": 24.783333,
      "lon": 85.000000	
   },
   {
      "name": "Bodh Gaya",
      "lat": 24.700001,
      "lon": 84.983330	
   },
   {
      "name": "Ulyanovsk",
      "lat": 54.333332,
      "lon": 48.400002	
   },
   {
      "name": "Mosrentgen",
      "lat": 55.618332,
      "lon": 37.471111	
   },
   {
      "name": "Rublevo",
      "lat": 55.785557,
      "lon": 37.355831	
   },
   {
      "name": "Yam",
      "lat": 55.484444,
      "lon": 37.749168	
   },
   {
      "name": "Stupino",
      "lat": 54.900833,
      "lon": 38.070831	
   },
   {
      "name": "Muranovo",
      "lat": 56.183334,
      "lon": 37.900002	
   },
   {
      "name": "Solnechnogorsk",
      "lat": 56.183334,
      "lon": 36.983334	
   },
   {
      "name": "Pokrov",
      "lat": 55.919998,
      "lon": 39.176945	
   },
   {
      "name": "Shchelkovo",
      "lat": 55.921665,
      "lon": 37.991390	
   },
   {
      "name": "Fryazino",
      "lat": 55.960556,
      "lon": 38.045555	
   },
   {
      "name": "Sofrino",
      "lat": 56.150002,
      "lon": 37.966667	
   },
   {
      "name": "Domodedovo",
      "lat": 55.442223,
      "lon": 37.758331	
   },
   {
      "name": "Yakovlevskoye",
      "lat": 55.441944,
      "lon": 37.950558	
   },
   {
      "name": "Chernogolovka",
      "lat": 56.000000,
      "lon": 38.366669	
   },
   {
      "name": "Fryanovo",
      "lat": 56.133331,
      "lon": 38.450001	
   },
   {
      "name": "Nakhabino",
      "lat": 55.851391,
      "lon": 37.181389	
   },
   {
      "name": "Sharya",
      "lat": 58.368610,
      "lon": 45.514442	
   },
   {
      "name": "Manturovo",
      "lat": 58.335278,
      "lon": 44.761944	
   },
   {
      "name": "Makaryev",
      "lat": 57.879723,
      "lon": 43.806946	
   },
   {
      "name": "Kovernino",
      "lat": 57.125278,
      "lon": 43.814167	
   },
   {
      "name": "Gorodets",
      "lat": 56.651390,
      "lon": 43.474998	
   },
   {
      "name": "Zavolzhye",
      "lat": 56.642776,
      "lon": 43.393612	
   },
   {
      "name": "Pestyaki",
      "lat": 56.710278,
      "lon": 42.671665	
   },
   {
      "name": "Gorokhovets",
      "lat": 56.194721,
      "lon": 42.700279	
   },
   {
      "name": "Murom",
      "lat": 55.565556,
      "lon": 42.041668	
   },
   {
      "name": "Yelatma",
      "lat": 54.967499,
      "lon": 41.750832	
   },
   {
      "name": "Kasimov",
      "lat": 54.941113,
      "lon": 41.395279	
   },
   {
      "name": "Izhevskoye",
      "lat": 54.556667,
      "lon": 40.870277	
   },
   {
      "name": "Spassk-Ryazanskiy",
      "lat": 54.407223,
      "lon": 40.380554	
   },
   {
      "name": "Murmino",
      "lat": 54.603611,
      "lon": 40.054443	
   },
   {
      "name": "Ryazan",
      "lat": 54.619720,
      "lon": 39.740002	
   },
   {
      "name": "Rybnoye",
      "lat": 54.725555,
      "lon": 39.511944	
   },
   {
      "name": "Zaraysk",
      "lat": 54.765278,
      "lon": 38.883610	
   },
   {
      "name": "Ozherelye",
      "lat": 54.796112,
      "lon": 38.267223	
   },
   {
      "name": "Fryazevo",
      "lat": 55.731945,
      "lon": 38.462776	
   },
   {
      "name": "Zvenigovo",
      "lat": 55.974167,
      "lon": 48.018055	
   },
   {
      "name": "Kozmodemyansk",
      "lat": 56.336666,
      "lon": 46.571110	
   },
   {
      "name": "Bor",
      "lat": 56.356667,
      "lon": 44.066944	
   },
   {
      "name": "Nizhniy Novgorod",
      "lat": 56.328674,
      "lon": 44.002048	
   },
   {
      "name": "Neklyudovo",
      "lat": 56.411388,
      "lon": 43.981388	
   },
   {
      "name": "Palekh",
      "lat": 56.802776,
      "lon": 41.857224	
   },
   {
      "name": "Yuzha",
      "lat": 56.583057,
      "lon": 42.012222	
   },
   {
      "name": "Kameshkovo",
      "lat": 56.348057,
      "lon": 41.004723	
   },
   {
      "name": "Kideksha",
      "lat": 56.416668,
      "lon": 40.516666	
   },
   {
      "name": "Suzdal",
      "lat": 56.428055,
      "lon": 40.441387	
   },
   {
      "name": "Gavrilov Posad",
      "lat": 56.559723,
      "lon": 40.117500	
   },
   {
      "name": "Yuryev-Polskiy",
      "lat": 56.500000,
      "lon": 39.683334	
   },
   {
      "name": "Bavleny",
      "lat": 56.400002,
      "lon": 39.560001	
   },
   {
      "name": "Kolchugino",
      "lat": 56.299999,
      "lon": 39.383331	
   },
   {
      "name": "Smolensk",
      "lat": 54.781666,
      "lon": 32.040001	
   },
   {
      "name": "Dubrowna",
      "lat": 54.573334,
      "lon": 30.690556	
   },
   {
      "name": "Orsha",
      "lat": 54.515278,
      "lon": 30.405277	
   },
   {
      "name": "Baran",
      "lat": 54.476391,
      "lon": 30.318056	
   },
   {
      "name": "Shklow",
      "lat": 54.210835,
      "lon": 30.291945	
   },
   {
      "name": "Mahilyow",
      "lat": 53.913891,
      "lon": 30.336390	
   },
   {
      "name": "Buynichy",
      "lat": 53.850555,
      "lon": 30.263889	
   },
   {
      "name": "Kirawsk",
      "lat": 53.268612,
      "lon": 29.473612	
   },
   {
      "name": "Babruysk",
      "lat": 53.150002,
      "lon": 29.233334	
   },
   {
      "name": "Asipovichy",
      "lat": 53.293331,
      "lon": 28.642221	
   },
   {
      "name": "Kapyl",
      "lat": 53.153057,
      "lon": 27.096666	
   },
   {
      "name": "Nyasvizh",
      "lat": 53.218056,
      "lon": 26.672501	
   },
   {
      "name": "Haradzyeya",
      "lat": 53.316666,
      "lon": 26.533333	
   },
   {
      "name": "Mir",
      "lat": 53.450001,
      "lon": 26.466667	
   },
   {
      "name": "Karelichy",
      "lat": 53.565277,
      "lon": 26.137777	
   },
   {
      "name": "Navahrudak",
      "lat": 53.599998,
      "lon": 25.833332	
   },
   {
      "name": "Slonim",
      "lat": 53.086666,
      "lon": 25.321943	
   },
   {
      "name": "Pruzhany",
      "lat": 52.556667,
      "lon": 24.464443	
   },
   {
      "name": "Brest",
      "lat": 52.099998,
      "lon": 23.700001	
   },
   {
      "name": "Kommunar",
      "lat": 56.116669,
      "lon": 40.433334	
   },
   {
      "name": "Bogolyubovo",
      "lat": 56.195557,
      "lon": 40.529720	
   },
   {
      "name": "Kostroma",
      "lat": 57.770832,
      "lon": 40.934444	
   },
   {
      "name": "Susanino",
      "lat": 58.146111,
      "lon": 41.587223	
   },
   {
      "name": "Ivanovo",
      "lat": 56.994167,
      "lon": 40.985832	
   },
   {
      "name": "Furmanov",
      "lat": 57.250832,
      "lon": 41.105831	
   },
   {
      "name": "Privolzhsk",
      "lat": 57.380833,
      "lon": 41.288612	
   },
   {
      "name": "Ples",
      "lat": 57.458618,
      "lon": 41.515789	
   },
   {
      "name": "Krasnoye-na-Volge",
      "lat": 57.512501,
      "lon": 41.241943	
   },
   {
      "name": "Kotlas",
      "lat": 61.261112,
      "lon": 46.655556	
   },
   {
      "name": "Privodino",
      "lat": 61.078056,
      "lon": 46.504444	
   },
   {
      "name": "Krasavino",
      "lat": 60.961388,
      "lon": 46.481388	
   },
   {
      "name": "Velikiy Ustyug",
      "lat": 60.764442,
      "lon": 46.310555	
   },
   {
      "name": "Nyuksenitsa",
      "lat": 60.412777,
      "lon": 44.239723	
   },
   {
      "name": "Totma",
      "lat": 59.974724,
      "lon": 42.764168	
   },
   {
      "name": "Soligalich",
      "lat": 59.077778,
      "lon": 42.286388	
   },
   {
      "name": "Chukhloma",
      "lat": 58.752499,
      "lon": 42.682499	
   },
   {
      "name": "Galich",
      "lat": 58.379723,
      "lon": 42.347500	
   },
   {
      "name": "Elektrougli",
      "lat": 55.717220,
      "lon": 38.207779	
   },
   {
      "name": "Staraya",
      "lat": 59.928055,
      "lon": 30.620556	
   },
   {
      "name": "Foros",
      "lat": 44.400002,
      "lon": 33.783333	
   },
   {
      "name": "Miskhor",
      "lat": 44.433334,
      "lon": 34.083332	
   },
   {
      "name": "Balaklava",
      "lat": 44.500000,
      "lon": 33.599998	
   },
   {
      "name": "Yalta",
      "lat": 44.500000,
      "lon": 34.166668	
   },
   {
      "name": "Massandra",
      "lat": 44.516666,
      "lon": 34.183334	
   },
   {
      "name": "Nikita",
      "lat": 44.533333,
      "lon": 34.233334	
   },
   {
      "name": "Inkerman",
      "lat": 44.599998,
      "lon": 33.599998	
   },
   {
      "name": "Sevastopol",
      "lat": 44.599998,
      "lon": 33.533333	
   },
   {
      "name": "Alushta",
      "lat": 44.666668,
      "lon": 34.416668	
   },
   {
      "name": "Perevalnoe",
      "lat": 44.833332,
      "lon": 34.333332	
   },
   {
      "name": "Sudak",
      "lat": 44.849998,
      "lon": 34.966667	
   },
   {
      "name": "Koktebel",
      "lat": 44.950001,
      "lon": 35.250000	
   },
   {
      "name": "Feodosiya",
      "lat": 45.033333,
      "lon": 35.383331	
   },
   {
      "name": "Saky",
      "lat": 45.135555,
      "lon": 33.603058	
   },
   {
      "name": "Uyutne",
      "lat": 45.199444,
      "lon": 33.301388	
   },
   {
      "name": "Yevpatoriya",
      "lat": 45.197224,
      "lon": 33.355831	
   },
   {
      "name": "Kerch",
      "lat": 45.358334,
      "lon": 36.475834	
   },
   {
      "name": "Mysove",
      "lat": 45.450001,
      "lon": 35.849998	
   },
   {
      "name": "Chornomorske",
      "lat": 45.503887,
      "lon": 32.699722	
   },
   {
      "name": "Sochi",
      "lat": 43.599998,
      "lon": 39.730278	
   },
   {
      "name": "Krasnaya Polyana",
      "lat": 43.675835,
      "lon": 40.207222	
   },
   {
      "name": "Lazarevskoye",
      "lat": 43.906113,
      "lon": 39.333057	
   },
   {
      "name": "Nebug",
      "lat": 44.171391,
      "lon": 39.003613	
   },
   {
      "name": "Kamennomostskiy",
      "lat": 44.298332,
      "lon": 40.185555	
   },
   {
      "name": "Divnomorskoye",
      "lat": 44.501110,
      "lon": 38.135277	
   },
   {
      "name": "Gelendzhik",
      "lat": 44.573055,
      "lon": 38.074722	
   },
   {
      "name": "Goryachiy Klyuch",
      "lat": 44.630833,
      "lon": 39.130001	
   },
   {
      "name": "Abrau-Dyurso",
      "lat": 44.689999,
      "lon": 37.590000	
   },
   {
      "name": "Anapskaya",
      "lat": 44.889999,
      "lon": 37.380001	
   },
   {
      "name": "Vityazevo",
      "lat": 44.993057,
      "lon": 37.271942	
   },
   {
      "name": "Vinogradnyy",
      "lat": 45.051666,
      "lon": 37.318890	
   },
   {
      "name": "Temryuk",
      "lat": 45.272221,
      "lon": 37.381111	
   },
   {
      "name": "Golubitskaya",
      "lat": 45.322224,
      "lon": 37.282223	
   },
   {
      "name": "Akhtanizovskaya",
      "lat": 45.320000,
      "lon": 37.099998	
   },
   {
      "name": "Staronizhestebliyevskaya",
      "lat": 45.376667,
      "lon": 38.451668	
   },
   {
      "name": "Sokhumi",
      "lat": 43.003334,
      "lon": 41.015278	
   },
   {
      "name": "Stantsiya Novyy Afon",
      "lat": 43.080555,
      "lon": 40.838333	
   },
   {
      "name": "Bichvinta",
      "lat": 43.159168,
      "lon": 40.337776	
   },
   {
      "name": "Gagra",
      "lat": 43.328335,
      "lon": 40.223888	
   },
   {
      "name": "Pavlovskaya Sloboda",
      "lat": 55.815556,
      "lon": 37.082779	
   },
   {
      "name": "Uglovoye",
      "lat": 43.328888,
      "lon": 132.091660	
   },
   {
      "name": "Knevichi",
      "lat": 43.399166,
      "lon": 132.180283	
   },
   {
      "name": "Adler",
      "lat": 43.430000,
      "lon": 39.919998	
   },
   {
      "name": "Orel-Izumrud",
      "lat": 43.458332,
      "lon": 39.924442	
   },
   {
      "name": "Vysokoye",
      "lat": 43.460556,
      "lon": 39.965832	
   },
   {
      "name": "Khosta",
      "lat": 43.514721,
      "lon": 39.868889	
   },
   {
      "name": "Dagomys",
      "lat": 43.670277,
      "lon": 39.668888	
   },
   {
      "name": "Vardane",
      "lat": 43.731667,
      "lon": 39.551388	
   },
   {
      "name": "Kardonikskaya",
      "lat": 43.861668,
      "lon": 41.719444	
   },
   {
      "name": "Sary-Tyuz",
      "lat": 43.901390,
      "lon": 41.899723	
   },
   {
      "name": "Pregradnaya",
      "lat": 43.950832,
      "lon": 41.199444	
   },
   {
      "name": "Goryachevodskiy",
      "lat": 44.023609,
      "lon": 43.092220	
   },
   {
      "name": "Shepsi",
      "lat": 44.036110,
      "lon": 39.148888	
   },
   {
      "name": "Pyatigorsk",
      "lat": 44.048611,
      "lon": 43.059444	
   },
   {
      "name": "Tuapse",
      "lat": 44.112499,
      "lon": 39.074165	
   },
   {
      "name": "Mineralnyye Vody",
      "lat": 44.210278,
      "lon": 43.135277	
   },
   {
      "name": "Andzhiyevskiy",
      "lat": 44.230000,
      "lon": 43.080002	
   },
   {
      "name": "Suvorovskaya",
      "lat": 44.194168,
      "lon": 42.653889	
   },
   {
      "name": "Levokumka",
      "lat": 44.231667,
      "lon": 43.150002	
   },
   {
      "name": "Novomikhaylovskiy",
      "lat": 44.258057,
      "lon": 38.857777	
   },
   {
      "name": "Dzhubga",
      "lat": 44.321110,
      "lon": 38.703888	
   },
   {
      "name": "Arkhipo-Osipovka",
      "lat": 44.369999,
      "lon": 38.520000	
   },
   {
      "name": "Soluno-Dmitriyevskoye",
      "lat": 44.403057,
      "lon": 42.727779	
   },
   {
      "name": "Gaspra",
      "lat": 44.433334,
      "lon": 34.099998	
   },
   {
      "name": "Khadyzhensk",
      "lat": 44.425556,
      "lon": 39.531944	
   },
   {
      "name": "Apsheronsk",
      "lat": 44.459999,
      "lon": 39.730000	
   },
   {
      "name": "Pshada",
      "lat": 44.468887,
      "lon": 38.398056	
   },
   {
      "name": "Partenit",
      "lat": 44.577995,
      "lon": 34.344635	
   },
   {
      "name": "Nevinnomyssk",
      "lat": 44.626667,
      "lon": 41.945278	
   },
   {
      "name": "Kabardinka",
      "lat": 44.651390,
      "lon": 37.942780	
   },
   {
      "name": "Labinsk",
      "lat": 44.634167,
      "lon": 40.735558	
   },
   {
      "name": "Saratovskaya",
      "lat": 44.710278,
      "lon": 39.224445	
   },
   {
      "name": "Novorossiysk",
      "lat": 44.723888,
      "lon": 37.770832	
   },
   {
      "name": "Belorechensk",
      "lat": 44.759998,
      "lon": 39.869999	
   },
   {
      "name": "Rayevskaya",
      "lat": 44.831944,
      "lon": 37.555557	
   },
   {
      "name": "Severnoye",
      "lat": 44.831944,
      "lon": 42.858334	
   },
   {
      "name": "Adygeysk",
      "lat": 44.880001,
      "lon": 39.189999	
   },
   {
      "name": "Novoukrainskiy",
      "lat": 44.896942,
      "lon": 38.052223	
   },
   {
      "name": "Tlyustenkhabl",
      "lat": 44.980000,
      "lon": 39.097221	
   },
   {
      "name": "Pashkovskiy",
      "lat": 45.023056,
      "lon": 39.106110	
   },
   {
      "name": "Staryy Krym",
      "lat": 45.033333,
      "lon": 35.099998	
   },
   {
      "name": "Stavropol",
      "lat": 45.042778,
      "lon": 41.973331	
   },
   {
      "name": "Krasnodar",
      "lat": 45.032780,
      "lon": 38.976944	
   },
   {
      "name": "Bilohirsk",
      "lat": 45.049999,
      "lon": 34.599998	
   },
   {
      "name": "Berehove",
      "lat": 45.099998,
      "lon": 35.433334	
   },
   {
      "name": "Starotitarovskaya",
      "lat": 45.213612,
      "lon": 37.143890	
   },
   {
      "name": "Novotitarovskaya",
      "lat": 45.235558,
      "lon": 38.979168	
   },
   {
      "name": "Khatukay",
      "lat": 45.188889,
      "lon": 39.666389	
   },
   {
      "name": "Slavyansk-na-Kubani",
      "lat": 45.251945,
      "lon": 38.118057	
   },
   {
      "name": "Ust-Labinsk",
      "lat": 45.212502,
      "lon": 39.686390	
   },
   {
      "name": "Trudobelikovskiy",
      "lat": 45.268612,
      "lon": 38.163055	
   },
   {
      "name": "Plastunovskaya",
      "lat": 45.293888,
      "lon": 39.266945	
   },
   {
      "name": "Ladozhskaya",
      "lat": 45.308056,
      "lon": 39.935001	
   },
   {
      "name": "Kropotkin",
      "lat": 45.437500,
      "lon": 40.575558	
   },
   {
      "name": "Medvedovskaya",
      "lat": 45.453056,
      "lon": 39.025833	
   },
   {
      "name": "Kalininskaya",
      "lat": 45.482224,
      "lon": 38.662777	
   },
   "Kavkazskaya"	45.445000	40.672779	
   {
      "name": "Korenovsk",
      "lat": 45.468613,
      "lon": 39.451942	
   },
   {
      "name": "Vyselki",
      "lat": 45.579445,
      "lon": 39.659721	
   },
   {
      "name": "Timashevsk",
      "lat": 45.616943,
      "lon": 38.945278	
   },
   {
      "name": "Dzhankoy",
      "lat": 45.716667,
      "lon": 34.400002	
   },
   {
      "name": "Krasnogvardeyskoye",
      "lat": 45.845554,
      "lon": 41.518612	
   },
   {
      "name": "Irkliyevskaya",
      "lat": 45.853889,
      "lon": 39.656113	
   },
   {
      "name": "Parkovyy",
      "lat": 45.833057,
      "lon": 40.145557	
   },
   {
      "name": "Novorozhdestvenskaya",
      "lat": 45.861942,
      "lon": 39.954166	
   },
   {
      "name": "Tikhoretsk",
      "lat": 45.854721,
      "lon": 40.125278	
   },
   {
      "name": "Ternevskaya",
      "lat": 45.854168,
      "lon": 40.408611	
   },
   {
      "name": "Novopokrovskaya",
      "lat": 45.951389,
      "lon": 40.700558	
   },
   {
      "name": "Kubanskiy",
      "lat": 45.929169,
      "lon": 40.580555	
   },
   {
      "name": "Krasnoperekopsk",
      "lat": 45.955002,
      "lon": 33.792221	
   },
   {
      "name": "Staroleushkovskaya",
      "lat": 45.990555,
      "lon": 39.763058	
   },
   {
      "name": "Belaya Glina",
      "lat": 46.070000,
      "lon": 40.860001	
   },
   {
      "name": "Pavlovskaya",
      "lat": 46.132778,
      "lon": 39.785557	
   },
   {
      "name": "Bilhorod-Dnistrovskyy",
      "lat": 46.200001,
      "lon": 30.350000	
   },
   {
      "name": "Peschanokopskoye",
      "lat": 46.196110,
      "lon": 41.077499	
   },
   {
      "name": "Novooleksiyivka",
      "lat": 46.226944,
      "lon": 34.642776	
   },
   {
      "name": "Partyzany",
      "lat": 46.331390,
      "lon": 34.750278	
   },
   {
      "name": "Odessa",
      "lat": 46.477474,
      "lon": 30.732622	
   },
   {
      "name": "Luchegorsk",
      "lat": 46.476391,
      "lon": 134.256943	
   },
   {
      "name": "Salsk",
      "lat": 46.472500,
      "lon": 41.542778	
   },
   {
      "name": "Starominskaya",
      "lat": 46.529999,
      "lon": 39.049721	
   },
   {
      "name": "Hola Prystan",
      "lat": 46.520557,
      "lon": 32.525833	
   },
   {
      "name": "Kushchevskaya",
      "lat": 46.556389,
      "lon": 39.638611	
   },
   {
      "name": "Kanelovskaya",
      "lat": 46.590832,
      "lon": 39.189999	
   },
   {
      "name": "Dolzhanskaya",
      "lat": 46.631111,
      "lon": 37.803890	
   },
   {
      "name": "Yakymivka",
      "lat": 46.689720,
      "lon": 35.153610	
   },
   {
      "name": "Proletarsk",
      "lat": 46.703056,
      "lon": 41.719166	
   },
   {
      "name": "Yeysk",
      "lat": 46.698891,
      "lon": 38.279167	
   },
   {
      "name": "Berdyansk",
      "lat": 46.750278,
      "lon": 36.794445	
   },
   {
      "name": "Melitopol",
      "lat": 46.842220,
      "lon": 35.373055	
   },
   {
      "name": "Orlovskiy",
      "lat": 46.871387,
      "lon": 42.059166	
   },
   {
      "name": "Samarskoye",
      "lat": 46.933613,
      "lon": 39.681389	
   },
   {
      "name": "Novobohdanivka",
      "lat": 47.081944,
      "lon": 35.327221	
   },
   {
      "name": "Zimovniki",
      "lat": 47.148335,
      "lon": 42.463333	
   },
   {
      "name": "Aksay",
      "lat": 47.259998,
      "lon": 39.869999	
   },
   {
      "name": "Rostov-na-Donu",
      "lat": 47.236389,
      "lon": 39.713890	
   },
   {
      "name": "Tokmak",
      "lat": 47.251389,
      "lon": 35.705833	
   },
   {
      "name": "Primorka",
      "lat": 47.283611,
      "lon": 39.062500	
   },
   {
      "name": "Bagayevskaya",
      "lat": 47.320000,
      "lon": 40.380001	
   },
   {
      "name": "Dubovskoye",
      "lat": 47.409168,
      "lon": 42.757500	
   },
   {
      "name": "Grushevskaya",
      "lat": 47.440556,
      "lon": 39.951111	
   },
   {
      "name": "Vasylivka",
      "lat": 47.436943,
      "lon": 35.274166	
   },
   {
      "name": "Vyazemskiy",
      "lat": 47.537777,
      "lon": 134.752502	
   },
   {
      "name": "Kotelnikovo",
      "lat": 47.631668,
      "lon": 43.146111	
   },
   {
      "name": "Hulyaypole",
      "lat": 47.665279,
      "lon": 36.257778	
   },
   {
      "name": "Mayskiy",
      "lat": 47.693054,
      "lon": 40.102501	
   },
   {
      "name": "Kushuhum",
      "lat": 47.714443,
      "lon": 35.209167	
   },
   {
      "name": "Ayutinskiy",
      "lat": 47.770000,
      "lon": 40.139999	
   },
   {
      "name": "Sadovoye",
      "lat": 47.776390,
      "lon": 44.508888	
   },
   {
      "name": "Kryvyy Rih",
      "lat": 47.916668,
      "lon": 33.349998	
   },
   {
      "name": "Koksovyy",
      "lat": 48.196667,
      "lon": 40.598888	
   },
   {
      "name": "Belaya Kalitva",
      "lat": 48.169998,
      "lon": 40.779999	
   },
   {
      "name": "Morozovsk",
      "lat": 48.353889,
      "lon": 41.826111	
   },
   {
      "name": "Staraya Stanitsa",
      "lat": 48.349998,
      "lon": 40.283333	
   },
   {
      "name": "Masalovka",
      "lat": 48.405277,
      "lon": 40.270557	
   },
   {
      "name": "Khotyn",
      "lat": 48.483334,
      "lon": 26.500000	
   },
   {
      "name": "Glubokiy",
      "lat": 48.521667,
      "lon": 40.325832	
   },
   {
      "name": "Kolomyya",
      "lat": 48.530556,
      "lon": 25.040277	
   },
   {
      "name": "Mynay",
      "lat": 48.583332,
      "lon": 22.283333	
   },
   {
      "name": "Kapustin Yar",
      "lat": 48.583057,
      "lon": 45.737221	
   },
   {
      "name": "Meliorativnoye",
      "lat": 48.599998,
      "lon": 35.366669	
   },
   {
      "name": "Novomoskovsk",
      "lat": 48.616669,
      "lon": 35.200001	
   },
   {
      "name": "Smidovich",
      "lat": 48.599998,
      "lon": 133.816666	
   },
   {
      "name": "Uzhhorod",
      "lat": 48.616669,
      "lon": 22.299999	
   },
   {
      "name": "Surovikino",
      "lat": 48.607777,
      "lon": 42.848610	
   },
   {
      "name": "Zalishchyky",
      "lat": 48.644722,
      "lon": 25.733889	
   },
   {
      "name": "Krasnoslobodsk",
      "lat": 48.707222,
      "lon": 44.571388	
   },
   {
      "name": "Srednyaya Akhtuba",
      "lat": 48.708889,
      "lon": 44.866669	
   },
   {
      "name": "Kamieniec Podolski",
      "lat": 48.666668,
      "lon": 26.566668	
   },
   {
      "name": "Leninsk",
      "lat": 48.711945,
      "lon": 45.199444	
   },
   {
      "name": "Tarasovskiy",
      "lat": 48.729168,
      "lon": 40.363609	
   },
   {
      "name": "Birobidzhan",
      "lat": 48.799999,
      "lon": 132.949997	
   },
   {
      "name": "Mumbai",
      "lat": 19.014410,
      "lon": 72.847939	
   },
   {
      "name": "Vovchansk",
      "lat": 50.300278,
      "lon": 36.946667	
   },
   {
      "name": "Staryy Oskol",
      "lat": 51.296665,
      "lon": 37.841667	
   },
   {
      "name": "Voronezh",
      "lat": 51.666389,
      "lon": 39.169998	
   },
   {
      "name": "Terbuny",
      "lat": 52.138889,
      "lon": 38.278889	
   },
   {
      "name": "Bolokhovo",
      "lat": 54.093613,
      "lon": 37.818333	
   },
   {
      "name": "Tarusa",
      "lat": 54.723331,
      "lon": 37.176666	
   },
   {
      "name": "Kronshtadt",
      "lat": 59.993610,
      "lon": 29.773611	
   },
   {
      "name": "Levashovo",
      "lat": 60.102222,
      "lon": 30.213057	
   },
   {
      "name": "Yamunanagar",
      "lat": 30.100000,
      "lon": 77.283333	
   },
   {
      "name": "Lukhovitsy",
      "lat": 54.972778,
      "lon": 39.036110	
   },
   {
      "name": "Polyany",
      "lat": 54.712223,
      "lon": 39.823055	
   },
   {
      "name": "Solotcha",
      "lat": 54.791668,
      "lon": 39.844166	
   },
   {
      "name": "Ostrovtsy",
      "lat": 55.593887,
      "lon": 37.993610	
   },
   {
      "name": "Tomilino",
      "lat": 55.655277,
      "lon": 37.925278	
   },
   {
      "name": "Lyubertsy",
      "lat": 55.677776,
      "lon": 37.883331	
   },
   {
      "name": "Olenegorsk",
      "lat": 68.150002,
      "lon": 33.299999	
   },
   {
      "name": "Lovozero",
      "lat": 68.004997,
      "lon": 35.011665	
   },
   {
      "name": "Yantarnyy",
      "lat": 54.871666,
      "lon": 19.938057	
   },
   {
      "name": "Irkutsk",
      "lat": 52.297779,
      "lon": 104.296387	
   },
   {
      "name": "Nagarkot",
      "lat": 27.700001,
      "lon": 85.516670	
   },
   {
      "name": "Jiwani",
      "lat": 25.049999,
      "lon": 61.741669	
   },
   {
      "name": "Inza",
      "lat": 53.853333,
      "lon": 46.358612	
   },
   {
      "name": "Veshkayma",
      "lat": 54.049999,
      "lon": 47.133331	
   },
   {
      "name": "Mirnyy",
      "lat": 54.366669,
      "lon": 48.750000	
   },
   {
      "name": "Dimitrovgrad",
      "lat": 54.213860,
      "lon": 49.618378	
   },
   {
      "name": "Ufa",
      "lat": 54.775002,
      "lon": 56.037498	
   },
   {
      "name": "Ulu-Telyak",
      "lat": 54.908611,
      "lon": 56.966946	
   },
   {
      "name": "Ust-Katav",
      "lat": 54.936943,
      "lon": 58.165558	
   },
   {
      "name": "Petukhovo",
      "lat": 55.069168,
      "lon": 67.901947	
   },
   {
      "name": "Petropavlovsk",
      "lat": 54.875278,
      "lon": 69.162781	
   },
   {
      "name": "Kokshetau",
      "lat": 53.277500,
      "lon": 69.388336	
   },
   {
      "name": "Shchuchinsk",
      "lat": 52.933334,
      "lon": 70.199997	
   },
   {
      "name": "Moyynty",
      "lat": 47.221111,
      "lon": 73.366943	
   },
   {
      "name": "Saryshaghan",
      "lat": 46.119167,
      "lon": 73.619164	
   },
   {
      "name": "Shu",
      "lat": 43.598331,
      "lon": 73.761391	
   },
   {
      "name": "Burunday",
      "lat": 43.360279,
      "lon": 76.857780	
   },
   {
      "name": "Almaty",
      "lat": 43.250000,
      "lon": 76.949997	
   },
   {
      "name": "Mokrous",
      "lat": 51.233334,
      "lon": 47.516666	
   },
   {
      "name": "Pushkino",
      "lat": 51.233334,
      "lon": 46.983334	
   },
   {
      "name": "Privolzhskiy",
      "lat": 51.400002,
      "lon": 46.033333	
   },
   {
      "name": "Mikhaylov",
      "lat": 54.229168,
      "lon": 39.018612	
   },
   {
      "name": "Khajuraho",
      "lat": 24.850000,
      "lon": 79.933334	
   },
   {
      "name": "Chhala",
      "lat": 23.299999,
      "lon": 72.766670	
   },
   {
      "name": "Ahmadabad",
      "lat": 23.033333,
      "lon": 72.616669	
   },
   {
      "name": "Talaja",
      "lat": 21.350000,
      "lon": 72.050003	
   },
   {
      "name": "Delvada",
      "lat": 20.766666,
      "lon": 71.033333	
   },
   {
      "name": "Diu",
      "lat": 20.714052,
      "lon": 70.982239	
   },
   {
      "name": "Saratov",
      "lat": 51.566666,
      "lon": 46.033333	
   },
   {
      "name": "Valday",
      "lat": 57.974724,
      "lon": 33.252499	
   },
   {
      "name": "Novocherkassk",
      "lat": 47.418056,
      "lon": 40.093887	
   },
   {
      "name": "Doha",
      "lat": 25.286667,
      "lon": 51.533333	
   },
   {
      "name": "Chernaya",
      "lat": 55.746113,
      "lon": 38.068890	
   },
   {
      "name": "Kievskij",
      "lat": 55.436417,
      "lon": 36.898270	
   },
   {
      "name": "Yaroslavl",
      "lat": 57.629871,
      "lon": 39.873676	
   },
   {
      "name": "Riga",
      "lat": 56.950001,
      "lon": 24.100000	
   },
   {
      "name": "Berezhani",
      "lat": 49.450001,
      "lon": 24.933332	
   },
   {
      "name": "Orel",
      "lat": 52.965832,
      "lon": 36.080276	
   },
   {
      "name": "Kalevala",
      "lat": 65.199997,
      "lon": 31.166668	
   },
   {
      "name": "Elektrogorsk",
      "lat": 55.879444,
      "lon": 38.791943	
   },
   {
      "name": "Pokotylivka",
      "lat": 49.915279,
      "lon": 36.177219	
   },
   {
      "name": "Lyubotyn",
      "lat": 49.950001,
      "lon": 35.966671	
   },
   {
      "name": "Kharkiv",
      "lat": 50.000000,
      "lon": 36.250000	
   },
   {
      "name": "Zalegoshch",
      "lat": 52.900829,
      "lon": 36.886940	
   },
   {
      "name": "Verkhovye",
      "lat": 52.811939,
      "lon": 37.242500	
   },
   {
      "name": "Seltso",
      "lat": 53.367500,
      "lon": 34.099998	
   },
   {
      "name": "Bryansk",
      "lat": 53.287498,
      "lon": 34.380562	
   },
   {
      "name": "Zaokskiy",
      "lat": 54.730560,
      "lon": 37.408890	
   },
   {
      "name": "Revyakino",
      "lat": 54.366940,
      "lon": 37.658890	
   },
   {
      "name": "Gorelki",
      "lat": 54.274719,
      "lon": 37.618328	
   },
   {
      "name": "Tula",
      "lat": 54.204441,
      "lon": 37.611111	
   },
   {
      "name": "Zmiyevka",
      "lat": 52.669720,
      "lon": 36.373890	
   },
   {
      "name": "Glazunovka",
      "lat": 52.498611,
      "lon": 36.327499	
   },
   {
      "name": "Zolotukhino",
      "lat": 52.084171,
      "lon": 36.377220	
   },
   {
      "name": "Kursk",
      "lat": 51.730282,
      "lon": 36.193890	
   },
   {
      "name": "Belgorod",
      "lat": 50.610001,
      "lon": 36.580002	
   },
   {
      "name": "Slatino",
      "lat": 50.224171,
      "lon": 36.160831	
   },
   {
      "name": "Vysokyy",
      "lat": 49.890560,
      "lon": 36.119999	
   },
   {
      "name": "Pivdenne",
      "lat": 49.881390,
      "lon": 36.070000	
   },
   {
      "name": "Merefa",
      "lat": 49.819721,
      "lon": 36.051941	
   },
   {
      "name": "Krasnopavlivka",
      "lat": 49.137218,
      "lon": 36.327221	
   },
   {
      "name": "Panyutyne",
      "lat": 48.933331,
      "lon": 36.283329	
   },
   {
      "name": "Zaporizhzhya",
      "lat": 47.816669,
      "lon": 35.183331	
   },
   {
      "name": "Malokaterynivka",
      "lat": 47.652500,
      "lon": 35.253891	
   },
   {
      "name": "Pryshyb",
      "lat": 47.260281,
      "lon": 35.322781	
   },
   {
      "name": "Lvovskiy",
      "lat": 55.314171,
      "lon": 37.515831	
   },
   {
      "name": "Pavlohrad",
      "lat": 48.516670,
      "lon": 35.866669	
   },
   {
      "name": "Haradzishcha",
      "lat": 53.316669,
      "lon": 26.000000	
   },
   {
      "name": "Gdov",
      "lat": 58.740559,
      "lon": 27.812220	
   },
   {
      "name": "Pestravka",
      "lat": 52.404999,
      "lon": 49.958328	
   },
   {
      "name": "Yeri",
      "lat": 35.099998,
      "lon": 33.416672	
   },
   {
      "name": "Gibraltar",
      "lat": 36.144741,
      "lon": -5.352570	
   },
   {
      "name": "Isawa",
      "lat": 35.650002,
      "lon": 138.633331	
   },
   {
      "name": "Sasaguri",
      "lat": 33.616669,
      "lon": 130.533325	
   },
   {
      "name": "Ishioka",
      "lat": 36.183331,
      "lon": 140.266663	
   },
   {
      "name": "Tsu-shi",
      "lat": 34.730282,
      "lon": 136.508606	
   },
   {
      "name": "Rifu",
      "lat": 38.323608,
      "lon": 140.974442	
   },
   {
      "name": "Beppu",
      "lat": 33.273609,
      "lon": 131.491943	
   },
   {
      "name": "Tulun",
      "lat": 54.561111,
      "lon": 100.579170	
   },
   {
      "name": "Kuytun",
      "lat": 54.341942,
      "lon": 101.503609	
   },
   {
      "name": "Zalari",
      "lat": 53.558399,
      "lon": 102.506500	
   },
   {
      "name": "Kutulik",
      "lat": 53.350830,
      "lon": 102.783890	
   },
   {
      "name": "Usolye-Sibirskoye",
      "lat": 52.751942,
      "lon": 103.645279	
   },
   {
      "name": "Angarsk",
      "lat": 52.536671,
      "lon": 103.886391	
   },
   {
      "name": "Shelekhov",
      "lat": 52.213890,
      "lon": 104.099998	
   },
   {
      "name": "Kultuk",
      "lat": 51.720829,
      "lon": 103.695557	
   },
   {
      "name": "Slyudyanka",
      "lat": 51.659439,
      "lon": 103.706108	
   },
   {
      "name": "Baykalsk",
      "lat": 51.505829,
      "lon": 104.146942	
   },
   {
      "name": "Rechka-Vydrino",
      "lat": 51.485001,
      "lon": 104.846107	
   },
   {
      "name": "Babushkin",
      "lat": 51.712219,
      "lon": 105.864723	
   },
   {
      "name": "Turuntayevo",
      "lat": 52.200001,
      "lon": 107.616669	
   },
   {
      "name": "Ust-Barguzin",
      "lat": 53.450001,
      "lon": 108.983330	
   },
   {
      "name": "Barguzin",
      "lat": 53.616669,
      "lon": 109.616669	
   },
   {
      "name": "Kurumkan",
      "lat": 54.299999,
      "lon": 110.300003	
   },
   {
      "name": "Beloozerskiy",
      "lat": 55.459782,
      "lon": 38.443581	
   },
   {
      "name": "Kimry",
      "lat": 56.866669,
      "lon": 37.349998	
   },
   {
      "name": "Havana",
      "lat": 23.133020,
      "lon": -82.383041	
   },
   {
      "name": "Nalchik",
      "lat": 43.498058,
      "lon": 43.618889	
   },
   {
      "name": "Zaysan",
      "lat": 47.466671,
      "lon": 84.866669	
   },
   {
      "name": "Sokol",
      "lat": 51.800362,
      "lon": 107.444366	
   },
   {
      "name": "Bereza",
      "lat": 53.518330,
      "lon": 50.139671	
   },
   {
      "name": "Omsk",
      "lat": 55.000000,
      "lon": 73.400002	
   },
   {
      "name": "Yubileyny",
      "lat": 55.933331,
      "lon": 37.833328	
   },
   {
      "name": "Ovsyanka",
      "lat": 55.957500,
      "lon": 92.551941	
   },
   {
      "name": "Neryungri",
      "lat": 56.670898,
      "lon": 124.649101	
   },
   {
      "name": "Pargolovo",
      "lat": 60.086910,
      "lon": 30.271790	
   },
   {
      "name": "Vanavara",
      "lat": 60.340000,
      "lon": 102.279716	
   },
   {
      "name": "Leskolovo",
      "lat": 60.263409,
      "lon": 30.454620	
   },
   {
      "name": "Nizhnevartovsk",
      "lat": 60.934399,
      "lon": 76.553101	
   },
   {
      "name": "Khanty-Mansiysk",
      "lat": 61.004169,
      "lon": 69.001938	
   },
   {
      "name": "Markha",
      "lat": 62.105282,
      "lon": 129.726944	
   },
   {
      "name": "Raduzhnyy",
      "lat": 62.096111,
      "lon": 77.474998	
   },
   {
      "name": "Mirnyy",
      "lat": 62.535278,
      "lon": 113.961113	
   },
   {
      "name": "Ukhta",
      "lat": 63.567051,
      "lon": 53.683479	
   },
   {
      "name": "Nadym",
      "lat": 65.533333,
      "lon": 72.516670	
   },
   {
      "name": "Novyy Urengoy",
      "lat": 66.083328,
      "lon": 76.633331	
   },
   {
      "name": "Udachnyy",
      "lat": 66.416672,
      "lon": 112.400002	
   },
   {
      "name": "Salekhard",
      "lat": 66.529999,
      "lon": 66.601936	
   },
   {
      "name": "Vorkuta",
      "lat": 67.500000,
      "lon": 64.000000	
   },
   {
      "name": "Chokurdakh",
      "lat": 70.633331,
      "lon": 147.916672	
   },
   {
      "name": "Tiksi",
      "lat": 71.687218,
      "lon": 128.869446	
   },
   {
      "name": "Khatanga",
      "lat": 71.966667,
      "lon": 102.500000	
   },
   {
      "name": "Timaru",
      "lat": -44.400002,
      "lon": 171.250000	
   },
   {
      "name": "Punta Alta",
      "lat": -38.875881,
      "lon": -62.073589	
   },
   {
      "name": "Necochea",
      "lat": -38.547260,
      "lon": -58.736752	
   },
   {
      "name": "Rotorua",
      "lat": -38.138741,
      "lon": 176.245163	
   },
   {
      "name": "Merimbula",
      "lat": -36.900002,
      "lon": 149.899994	
   },
   {
      "name": "Horsham",
      "lat": -36.716671,
      "lon": 142.199997	
   },
   {
      "name": "Bega",
      "lat": -36.666672,
      "lon": 149.833328	
   },
   {
      "name": "Chillan",
      "lat": -36.606640,
      "lon": -72.103439	
   },
   {
      "name": "Shepparton",
      "lat": -36.383331,
      "lon": 145.399994	
   },
   {
      "name": "Dolores",
      "lat": -36.313221,
      "lon": -57.679180	
   },
   {
      "name": "Howlong",
      "lat": -35.966671,
      "lon": 146.633331	
   },
   {
      "name": "Swan Hill",
      "lat": -35.337811,
      "lon": 143.554398	
   },
   {
      "name": "Lake Albert",
      "lat": -35.166672,
      "lon": 147.383331	
   },
   {
      "name": "Adelaide",
      "lat": -34.933331,
      "lon": 138.600006	
   },
   {
      "name": "Fullarton",
      "lat": -34.951000,
      "lon": 138.628998	
   },
   {
      "name": "Woodville",
      "lat": -34.883331,
      "lon": 138.550003	
   },
   {
      "name": "Athelstone",
      "lat": -34.869789,
      "lon": 138.702881	
   },
   {
      "name": "Montevideo",
      "lat": -34.833462,
      "lon": -56.167351	
   },
   {
      "name": "Ingleburn",
      "lat": -34.000000,
      "lon": 150.866669	
   },
   {
      "name": "Stellenbosch",
      "lat": -33.934620,
      "lon": 18.866760	
   },
   {
      "name": "Chipping Norton",
      "lat": -33.900002,
      "lon": 150.949997	
   },
   {
      "name": "Dee Why",
      "lat": -33.750000,
      "lon": 151.300003	
   },
   {
      "name": "Orange",
      "lat": -33.283970,
      "lon": 149.100174	
   },
   {
      "name": "Mercedes",
      "lat": -33.252399,
      "lon": -58.030472	
   },
   {
      "name": "Parkes",
      "lat": -33.133331,
      "lon": 148.183334	
   },
   {
      "name": "Limache",
      "lat": -33.016670,
      "lon": -71.266670	
   },
   {
      "name": "Dubbo",
      "lat": -32.250000,
      "lon": 148.616669	
   },
   {
      "name": "Beaufort West",
      "lat": -32.356709,
      "lon": 22.582951	
   },
   {
      "name": "Graaff-Reinet",
      "lat": -32.252151,
      "lon": 24.530750	
   },
   {
      "name": "Gloucester",
      "lat": -32.000000,
      "lon": 151.966675	
   },
   {
      "name": "Broken Hill",
      "lat": -31.950001,
      "lon": 141.433334	
   },
   {
      "name": "Cundletown",
      "lat": -31.900000,
      "lon": 152.533325	
   },
   {
      "name": "Cobar",
      "lat": -31.500000,
      "lon": 145.816666	
   },
   {
      "name": "Salto",
      "lat": -31.383329,
      "lon": -57.966671	
   },
   {
      "name": "Gunnedah",
      "lat": -30.983330,
      "lon": 150.250000	
   },
   {
      "name": "Armidale",
      "lat": -30.516670,
      "lon": 151.649994	
   },
   {
      "name": "Narrabri",
      "lat": -30.316669,
      "lon": 149.783325	
   },
   {
      "name": "Coffs Harbour",
      "lat": -30.299999,
      "lon": 153.133331	
   },
   {
      "name": "Chamical",
      "lat": -30.360020,
      "lon": -66.313988	
   },
   {
      "name": "Inverell",
      "lat": -29.783331,
      "lon": 151.116669	
   },
   {
      "name": "Moree",
      "lat": -29.466669,
      "lon": 149.850006	
   },
   {
      "name": "Howick",
      "lat": -29.477949,
      "lon": 30.230570	
   },
   {
      "name": "Evans Head",
      "lat": -29.116671,
      "lon": 153.433334	
   },
   {
      "name": "Casino",
      "lat": -28.866671,
      "lon": 153.050003	
   },
   {
      "name": "Lismore",
      "lat": -28.813540,
      "lon": 153.277298	
   },
   {
      "name": "Welkom",
      "lat": -27.986441,
      "lon": 26.706610	
   },
   {
      "name": "Taigum",
      "lat": -27.342649,
      "lon": 153.044434	
   },
   {
      "name": "Buderim",
      "lat": -26.683331,
      "lon": 153.050003	
   },
   {
      "name": "Boksburg",
      "lat": -26.211969,
      "lon": 28.259581	
   },
   {
      "name": "Mafra",
      "lat": -26.111389,
      "lon": -49.805279	
   },
   {
      "name": "Lichtenburg",
      "lat": -26.152000,
      "lon": 26.159679	
   },
   {
      "name": "Mabopane",
      "lat": -25.497681,
      "lon": 28.100651	
   },
   {
      "name": "Piraquara",
      "lat": -25.441669,
      "lon": -49.063332	
   },
   {
      "name": "Hukuntsi",
      "lat": -24.000000,
      "lon": 21.750000	
   },
   {
      "name": "Alice Springs",
      "lat": -23.700001,
      "lon": 133.883331	
   },
   {
      "name": "Aruja",
      "lat": -23.396111,
      "lon": -46.320831	
   },
   {
      "name": "Tom Price",
      "lat": -22.693899,
      "lon": 117.793098	
   },
   {
      "name": "Valencia West",
      "lat": 32.132381,
      "lon": -111.114143	
   },
   {
      "name": "Tularosa",
      "lat": 33.073971,
      "lon": -106.018600	
   },
   {
      "name": "Leamington",
      "lat": 42.054901,
      "lon": -82.606201	
   },
   {
      "name": "Chatham-Kent",
      "lat": 42.400089,
      "lon": -82.183098	
   },
   {
      "name": "Thorold",
      "lat": 43.116821,
      "lon": -79.199577	
   },
   {
      "name": "Waterloo",
      "lat": 43.466801,
      "lon": -80.516388	
   },
   {
      "name": "Keswick",
      "lat": 44.250111,
      "lon": -79.466316	
   },
   {
      "name": "Smiths Falls",
      "lat": 44.900108,
      "lon": -76.016068	
   },
   {
      "name": "Huntingdon",
      "lat": 45.083389,
      "lon": -74.165932	
   },
   {
      "name": "Saint-Jean-sur-Richelieu",
      "lat": 45.316780,
      "lon": -73.265862	
   },
   {
      "name": "Richelieu",
      "lat": 45.443359,
      "lon": -73.246017	
   },
   {
      "name": "Clarence-Rockland",
      "lat": 45.550098,
      "lon": -75.291008	
   },
   {
      "name": "Saint-Hyacinthe",
      "lat": 45.616779,
      "lon": -72.949142	
   },
   {
      "name": "Sainte-Agathe-des-Monts",
      "lat": 46.050091,
      "lon": -74.282516	
   },
   {
      "name": "Moncton",
      "lat": 46.115940,
      "lon": -64.801857	
   },
   {
      "name": "Saint-Come--Liniere",
      "lat": 46.066769,
      "lon": -70.515732	
   },
   {
      "name": "Plessisville",
      "lat": 46.218559,
      "lon": -71.762009	
   },
   {
      "name": "Becancour",
      "lat": 46.333359,
      "lon": -72.432411	
   },
   {
      "name": "Sainte-Marie",
      "lat": 46.434010,
      "lon": -71.011681	
   },
   {
      "name": "Saint-Augustin-de-Desmaures",
      "lat": 46.740639,
      "lon": -71.451309	
   },
   {
      "name": "La Pocatiere",
      "lat": 47.348358,
      "lon": -70.061859	
   },
   {
      "name": "Tracadie-Sheila",
      "lat": 47.514439,
      "lon": -64.918060	
   },
   {
      "name": "Saguenay",
      "lat": 48.416752,
      "lon": -71.065727	
   },
   {
      "name": "Rimouski",
      "lat": 48.448792,
      "lon": -68.523956	
   },
   {
      "name": "Thunder Bay",
      "lat": 48.400101,
      "lon": -89.316833	
   },
   {
      "name": "Richmond",
      "lat": 49.170029,
      "lon": -123.136833	
   },
   {
      "name": "Nanaimo",
      "lat": 49.166340,
      "lon": -123.936012	
   },
   {
      "name": "Vancouver",
      "lat": 49.249660,
      "lon": -123.119339	
   },
   {
      "name": "Port Alberni",
      "lat": 49.241329,
      "lon": -124.802803	
   },
   {
      "name": "Morden",
      "lat": 49.191898,
      "lon": -98.101357	
   },
   {
      "name": "Burnaby",
      "lat": 49.266361,
      "lon": -122.952629	
   },
   {
      "name": "Parksville",
      "lat": 49.316330,
      "lon": -124.319450	
   },
   {
      "name": "West Kelowna",
      "lat": 49.862499,
      "lon": -119.583328	
   },
   {
      "name": "Portage la Prairie",
      "lat": 49.972820,
      "lon": -98.292633	
   },
   {
      "name": "Selkirk",
      "lat": 50.143600,
      "lon": -96.884521	
   },
   {
      "name": "Armstrong",
      "lat": 50.449791,
      "lon": -119.202347	
   },
   {
      "name": "Crossfield",
      "lat": 51.433411,
      "lon": -114.035278	
   },
   {
      "name": "Edson",
      "lat": 53.583450,
      "lon": -116.435593	
   },
   {
      "name": "Edmonton",
      "lat": 53.550140,
      "lon": -113.468712	
   },
   {
      "name": "Port Elizabeth",
      "lat": -33.917992,
      "lon": 25.570070	
   },
   {
      "name": "Pirassununga",
      "lat": -21.996111,
      "lon": -47.425831	
   },
   {
      "name": "Orapa",
      "lat": -21.283331,
      "lon": 25.366671	
   },
   {
      "name": "Mount Isa",
      "lat": -20.733330,
      "lon": 139.500000	
   },
   {
      "name": "Outjo",
      "lat": -20.116671,
      "lon": 16.150000	
   },
   {
      "name": "Tennant Creek",
      "lat": -19.650000,
      "lon": 134.199997	
   },
   {
      "name": "Tsumeb",
      "lat": -19.233330,
      "lon": 17.716669	
   },
   {
      "name": "Rusape",
      "lat": -18.527849,
      "lon": 32.128429	
   },
   {
      "name": "Mollendo",
      "lat": -17.023060,
      "lon": -72.014717	
   },
   {
      "name": "Nhulunbuy",
      "lat": -12.233330,
      "lon": 136.766663	
   },
   {
      "name": "Itumba",
      "lat": -9.400000,
      "lon": 33.183331	
   },
   {
      "name": "Magole",
      "lat": -6.366670,
      "lon": 37.366669	
   },
   {
      "name": "Tabaquite",
      "lat": 10.383330,
      "lon": -61.299999	
   },
   {
      "name": "Coro",
      "lat": 11.404500,
      "lon": -69.673439	
   },
   {
      "name": "Polur",
      "lat": 12.500000,
      "lon": 79.133331	
   },
   {
      "name": "Kanakapura",
      "lat": 12.550000,
      "lon": 77.416672	
   },
   {
      "name": "Bangkok",
      "lat": 13.750000,
      "lon": 100.516670	
   },
   {
      "name": "Villa Nueva",
      "lat": 14.033330,
      "lon": -87.133331	
   },
   {
      "name": "Pak Chong",
      "lat": 14.708020,
      "lon": 101.416138	
   },
   {
      "name": "Kidal",
      "lat": 18.441111,
      "lon": 1.407780	
   },
   {
      "name": "Bilma",
      "lat": 18.685320,
      "lon": 12.916430	
   },
   {
      "name": "Otra Banda",
      "lat": 18.650160,
      "lon": -68.662811	
   },
   {
      "name": "Toluca",
      "lat": 19.288330,
      "lon": -99.667221	
   },
   {
      "name": "Coyoacan",
      "lat": 19.328890,
      "lon": -99.160278	
   },
   {
      "name": "Sadabad",
      "lat": 27.450001,
      "lon": 78.050003	
   },
   {
      "name": "Puerto Rico",
      "lat": 27.789431,
      "lon": -15.710450	
   },
   {
      "name": "Arafo",
      "lat": 28.339710,
      "lon": -16.422440	
   },
   {
      "name": "Kanoya",
      "lat": 31.383329,
      "lon": 130.850006	
   },
   {
      "name": "Xiaolingwei",
      "lat": 32.033329,
      "lon": 118.849998	
   },
   {
      "name": "Remada",
      "lat": 32.316620,
      "lon": 10.395510	
   },
   {
      "name": "Santana",
      "lat": 32.799999,
      "lon": -16.883329	
   },
   {
      "name": "Chikushino-shi",
      "lat": 33.496311,
      "lon": 130.515594	
   },
   {
      "name": "Umi",
      "lat": 33.566669,
      "lon": 130.500000	
   },
   {
      "name": "Yukuhashi",
      "lat": 33.728729,
      "lon": 130.983002	
   },
   {
      "name": "Peshawar",
      "lat": 34.007999,
      "lon": 71.578491	
   },
   {
      "name": "Lake of the Woods",
      "lat": 34.163929,
      "lon": -109.989548	
   },
   {
      "name": "Sumoto",
      "lat": 34.349998,
      "lon": 134.899994	
   },
   {
      "name": "Mihara",
      "lat": 34.400002,
      "lon": 133.083328	
   },
   {
      "name": "Dahlonega",
      "lat": 34.532589,
      "lon": -83.984909	
   },
   {
      "name": "Tondabayashi",
      "lat": 34.500000,
      "lon": 135.600006	
   },
   {
      "name": "Adelanto",
      "lat": 34.582771,
      "lon": -117.409218	
   },
   {
      "name": "Shizuoka-shi",
      "lat": 34.976940,
      "lon": 138.383057	
   },
   {
      "name": "Niimi",
      "lat": 34.983330,
      "lon": 133.466675	
   },
   {
      "name": "Numazu",
      "lat": 35.099998,
      "lon": 138.866669	
   },
   {
      "name": "Nagoya-shi",
      "lat": 35.181469,
      "lon": 136.906403	
   },
   {
      "name": "Nicosia",
      "lat": 35.166672,
      "lon": 33.366669	
   },
   {
      "name": "Inazawa",
      "lat": 35.250000,
      "lon": 136.783325	
   },
   {
      "name": "Ninomiya",
      "lat": 35.303329,
      "lon": 139.253326	
   },
   {
      "name": "Isehara",
      "lat": 35.390560,
      "lon": 139.307785	
   },
   {
      "name": "Iida",
      "lat": 35.519650,
      "lon": 137.820740	
   },
   {
      "name": "Kawasaki",
      "lat": 35.520561,
      "lon": 139.717224	
   },
   {
      "name": "Hino",
      "lat": 35.673061,
      "lon": 139.400284	
   },
   {
      "name": "Nerima",
      "lat": 35.733330,
      "lon": 139.649994	
   },
   {
      "name": "Shiki",
      "lat": 35.833328,
      "lon": 139.583328	
   },
   {
      "name": "Soka",
      "lat": 35.820278,
      "lon": 139.804443	
   },
   {
      "name": "Kamifukuoka",
      "lat": 35.872501,
      "lon": 139.509720	
   },
   {
      "name": "Attard",
      "lat": 35.889721,
      "lon": 14.442500	
   },
   {
      "name": "Birkirkara",
      "lat": 35.897221,
      "lon": 14.461110	
   },
   {
      "name": "Inashiki",
      "lat": 35.956329,
      "lon": 140.323563	
   },
   {
      "name": "Ono",
      "lat": 35.981060,
      "lon": 136.487274	
   },
   {
      "name": "Shimodate",
      "lat": 36.299999,
      "lon": 139.983337	
   },
   {
      "name": "Kitaibaraki",
      "lat": 36.783329,
      "lon": 140.750000	
   },
   {
      "name": "Moron de la Frontera",
      "lat": 37.120838,
      "lon": -5.454030	
   },
   {
      "name": "Sukagawa",
      "lat": 37.283329,
      "lon": 140.383331	
   },
   {
      "name": "Barrafranca",
      "lat": 37.379139,
      "lon": 14.201070	
   },
   {
      "name": "Ribera",
      "lat": 37.498440,
      "lon": 13.264150	
   },
   {
      "name": "Menfi",
      "lat": 37.606640,
      "lon": 12.967840	
   },
   {
      "name": "Pedara",
      "lat": 37.616852,
      "lon": 15.056690	
   },
   {
      "name": "Mazara del Vallo",
      "lat": 37.664139,
      "lon": 12.588040	
   },
   {
      "name": "Zakynthos",
      "lat": 37.791389,
      "lon": 20.895281	
   },
   {
      "name": "Aracena",
      "lat": 37.893959,
      "lon": -6.561160	
   },
   {
      "name": "Khalandrion",
      "lat": 38.030579,
      "lon": 23.797930	
   },
   {
      "name": "Galatsi",
      "lat": 38.016670,
      "lon": 23.750000	
   },
   {
      "name": "Megara",
      "lat": 38.000000,
      "lon": 23.345560	
   },
   {
      "name": "Elefsina",
      "lat": 38.041351,
      "lon": 23.542950	
   },
   {
      "name": "Melissia",
      "lat": 38.049999,
      "lon": 23.833330	
   },
   {
      "name": "Altofonte",
      "lat": 38.042049,
      "lon": 13.296240	
   },
   {
      "name": "Mandra",
      "lat": 38.066669,
      "lon": 23.500000	
   },
   {
      "name": "Montelepre",
      "lat": 38.090450,
      "lon": 13.174340	
   },
   {
      "name": "Reggio Calabria",
      "lat": 38.110470,
      "lon": 15.661290	
   },
   {
      "name": "Barcellona-Pozzo di Gotto",
      "lat": 38.147560,
      "lon": 15.210480	
   },
   {
      "name": "Erythres",
      "lat": 38.216671,
      "lon": 23.316669	
   },
   {
      "name": "Messina",
      "lat": 38.193272,
      "lon": 15.549690	
   },
   {
      "name": "Santa Pola",
      "lat": 38.191650,
      "lon": -0.565800	
   },
   {
      "name": "Elche",
      "lat": 38.262180,
      "lon": -0.701070	
   },
   {
      "name": "Polistena",
      "lat": 38.405979,
      "lon": 16.080000	
   },
   {
      "name": "Vasilikon",
      "lat": 38.433331,
      "lon": 23.666670	
   },
   {
      "name": "Elda",
      "lat": 38.477829,
      "lon": -0.791570	
   },
   {
      "name": "Agrinio",
      "lat": 38.621391,
      "lon": 21.407780	
   },
   {
      "name": "Puertollano",
      "lat": 38.687119,
      "lon": -4.107340	
   },
   {
      "name": "Barcarena",
      "lat": 38.732449,
      "lon": -9.280000	
   },
   {
      "name": "Ellis",
      "lat": 38.938068,
      "lon": -99.560669	
   },
   {
      "name": "Cagliari",
      "lat": 39.207378,
      "lon": 9.134620	
   },
   {
      "name": "Monserrato",
      "lat": 39.256111,
      "lon": 9.139720	
   },
   {
      "name": "Casas Ibanez",
      "lat": 39.283329,
      "lon": -1.466670	
   },
   {
      "name": "Dolianova",
      "lat": 39.377781,
      "lon": 9.175830	
   },
   {
      "name": "Colby",
      "lat": 39.395840,
      "lon": -101.052383	
   },
   {
      "name": "Luzzi",
      "lat": 39.446098,
      "lon": 16.288290	
   },
   {
      "name": "Edremit",
      "lat": 39.596111,
      "lon": 27.024441	
   },
   {
      "name": "Morioka-shi",
      "lat": 39.703609,
      "lon": 141.152496	
   },
   {
      "name": "Larisa",
      "lat": 39.637218,
      "lon": 22.420280	
   },
   {
      "name": "Botrugno",
      "lat": 40.064720,
      "lon": 18.324430	
   },
   {
      "name": "Metsamor",
      "lat": 40.073021,
      "lon": 44.289619	
   },
   {
      "name": "Chinchon",
      "lat": 40.140202,
      "lon": -3.422670	
   },
   {
      "name": "Morata de Tajuna",
      "lat": 40.226799,
      "lon": -3.432690	
   },
   {
      "name": "Tursi",
      "lat": 40.245209,
      "lon": 16.469690	
   },
   {
      "name": "Kozani",
      "lat": 40.301109,
      "lon": 21.786390	
   },
   {
      "name": "Teggiano",
      "lat": 40.379211,
      "lon": 15.540460	
   },
   {
      "name": "Loeches",
      "lat": 40.383331,
      "lon": -3.400000	
   },
   {
      "name": "Madrid",
      "lat": 40.416500,
      "lon": -3.702560	
   },
   {
      "name": "Pomarico",
      "lat": 40.517818,
      "lon": 16.547279	
   },
   {
      "name": "Agia Trias",
      "lat": 40.499439,
      "lon": 22.876110	
   },
   {
      "name": "Kalamaria",
      "lat": 40.582500,
      "lon": 22.950279	
   },
   {
      "name": "Chortiatis",
      "lat": 40.610481,
      "lon": 23.099630	
   },
   {
      "name": "Thessaloniki",
      "lat": 40.640282,
      "lon": 22.943890	
   },
   {
      "name": "Potenza",
      "lat": 40.644321,
      "lon": 15.808570	
   },
   {
      "name": "Nea Ionia",
      "lat": 40.688889,
      "lon": 22.856939	
   },
   {
      "name": "Misawa",
      "lat": 40.683609,
      "lon": 141.359726	
   },
   {
      "name": "Metamora",
      "lat": 40.790588,
      "lon": -89.360641	
   },
   {
      "name": "Nigrita",
      "lat": 40.905281,
      "lon": 23.499439	
   },
   {
      "name": "Kavala",
      "lat": 40.939720,
      "lon": 24.401939	
   },
   {
      "name": "Villa Literno",
      "lat": 41.009911,
      "lon": 14.080520	
   },
   {
      "name": "Sturno",
      "lat": 41.020119,
      "lon": 15.110250	
   },
   {
      "name": "Wanaque",
      "lat": 41.038151,
      "lon": -74.294037	
   },
   {
      "name": "Serres",
      "lat": 41.085560,
      "lon": 23.549721	
   },
   {
      "name": "Komotini",
      "lat": 41.122780,
      "lon": 25.396391	
   },
   {
      "name": "Xanthi",
      "lat": 41.141392,
      "lon": 24.883610	
   },
   {
      "name": "Lagrange",
      "lat": 41.237282,
      "lon": -82.119873	
   },
   {
      "name": "Valls",
      "lat": 41.286121,
      "lon": 1.249930	
   },
   {
      "name": "Piedimonte Matese",
      "lat": 41.350819,
      "lon": 14.368030	
   },
   {
      "name": "LHospitalet de Llobregat",
      "lat": 41.359669,
      "lon": 2.100280	
   },
   {
      "name": "Barcelona",
      "lat": 41.388790,
      "lon": 2.158990	
   },
   {
      "name": "Sant Adria de Besos",
      "lat": 41.430729,
      "lon": 2.218550	
   },
   {
      "name": "Foggia",
      "lat": 41.460930,
      "lon": 15.549250	
   },
   {
      "name": "Orestiada",
      "lat": 41.503059,
      "lon": 26.529720	
   },
   {
      "name": "Esparreguera",
      "lat": 41.533329,
      "lon": 1.866670	
   },
   {
      "name": "Terrassa",
      "lat": 41.566669,
      "lon": 2.016670	
   },
   {
      "name": "Lleida",
      "lat": 41.616669,
      "lon": 0.616670	
   },
   {
      "name": "Soria",
      "lat": 41.764011,
      "lon": -2.468830	
   },
   {
      "name": "Balaguer",
      "lat": 41.791168,
      "lon": 0.810940	
   },
   {
      "name": "Olevano Romano",
      "lat": 41.860619,
      "lon": 13.033090	
   },
   {
      "name": "Salt",
      "lat": 41.974892,
      "lon": 2.792810	
   },
   {
      "name": "Palencia",
      "lat": 42.016670,
      "lon": -4.533330	
   },
   {
      "name": "Ejea de los Caballeros",
      "lat": 42.126320,
      "lon": -1.137160	
   },
   {
      "name": "Forano",
      "lat": 42.301231,
      "lon": 12.589770	
   },
   {
      "name": "Pecatonica",
      "lat": 42.313911,
      "lon": -89.359283	
   },
   {
      "name": "O Carballino",
      "lat": 42.431629,
      "lon": -8.078990	
   },
   {
      "name": "Pizzoli",
      "lat": 42.432140,
      "lon": 13.311690	
   },
   {
      "name": "Ponferrada",
      "lat": 42.546638,
      "lon": -6.596190	
   },
   {
      "name": "Leon",
      "lat": 42.599998,
      "lon": -5.566670	
   },
   {
      "name": "Vega de Espinareda",
      "lat": 42.725368,
      "lon": -6.654390	
   },
   {
      "name": "Chitose",
      "lat": 42.819439,
      "lon": 141.652222	
   },
   {
      "name": "Bonar",
      "lat": 42.866798,
      "lon": -5.323860	
   },
   {
      "name": "Santiago de Compostela",
      "lat": 42.880520,
      "lon": -8.545690	
   },
   {
      "name": "Bergara",
      "lat": 43.115101,
      "lon": -2.417500	
   },
   {
      "name": "Llodio",
      "lat": 43.143219,
      "lon": -2.962040	
   },
   {
      "name": "Torrita di Siena",
      "lat": 43.170238,
      "lon": 11.779440	
   },
   {
      "name": "Narbonne",
      "lat": 43.183331,
      "lon": 3.000000	
   },
   {
      "name": "Barakaldo",
      "lat": 43.295639,
      "lon": -2.997290	
   },
   {
      "name": "Cabezon de la Sal",
      "lat": 43.308239,
      "lon": -4.235710	
   },
   {
      "name": "Sestao",
      "lat": 43.309750,
      "lon": -3.007160	
   },
   {
      "name": "Carbonne",
      "lat": 43.298569,
      "lon": 1.225200	
   },
   {
      "name": "Lodi",
      "lat": 43.313881,
      "lon": -89.526512	
   },
   {
      "name": "Marseille",
      "lat": 43.296951,
      "lon": 5.381070	
   },
   {
      "name": "Cresco",
      "lat": 43.381359,
      "lon": -92.114052	
   },
   {
      "name": "Llanes",
      "lat": 43.419819,
      "lon": -4.754850	
   },
   {
      "name": "Suances",
      "lat": 43.433399,
      "lon": -4.043380	
   },
   {
      "name": "Aigues-Mortes",
      "lat": 43.566830,
      "lon": 4.190680	
   },
   {
      "name": "Pietra la Croce",
      "lat": 43.602242,
      "lon": 13.538870	
   },
   {
      "name": "Ponsacco",
      "lat": 43.623840,
      "lon": 10.629110	
   },
   {
      "name": "Firenze",
      "lat": 43.766670,
      "lon": 11.250000	
   },
   {
      "name": "Altopascio",
      "lat": 43.815739,
      "lon": 10.673910	
   },
   {
      "name": "Montecarlo",
      "lat": 43.851250,
      "lon": 10.668310	
   },
   {
      "name": "Montemurlo",
      "lat": 43.921650,
      "lon": 11.031120	
   },
   {
      "name": "Les Mees",
      "lat": 44.030708,
      "lon": 5.976810	
   },
   {
      "name": "Castelsarrasin",
      "lat": 44.033329,
      "lon": 1.100000	
   },
   {
      "name": "SantArcangelo di Romagna",
      "lat": 44.063259,
      "lon": 12.446570	
   },
   {
      "name": "Box Elder",
      "lat": 44.112492,
      "lon": -103.068230	
   },
   {
      "name": "Castelnuovo di Garfagnana",
      "lat": 44.121250,
      "lon": 10.404600	
   },
   {
      "name": "Borghetto Santo Spirito",
      "lat": 44.111870,
      "lon": 8.241290	
   },
   {
      "name": "Loano",
      "lat": 44.127769,
      "lon": 8.257430	
   },
   {
      "name": "Casola Valsenio",
      "lat": 44.225060,
      "lon": 11.625120	
   },
   {
      "name": "Spotorno",
      "lat": 44.226379,
      "lon": 8.416470	
   },
   {
      "name": "Vado Ligure",
      "lat": 44.269138,
      "lon": 8.433750	
   },
   {
      "name": "Quiliano",
      "lat": 44.292542,
      "lon": 8.412650	
   },
   {
      "name": "Hinesburg",
      "lat": 44.329220,
      "lon": -73.110680	
   },
   {
      "name": "Buffalo",
      "lat": 44.348309,
      "lon": -106.698936	
   },
   {
      "name": "Mihail Kogalniceanu",
      "lat": 44.366669,
      "lon": 28.450001	
   },
   {
      "name": "Beinette",
      "lat": 44.364830,
      "lon": 7.646730	
   },
   {
      "name": "Sturgis",
      "lat": 44.409710,
      "lon": -103.509079	
   },
   {
      "name": "Cody",
      "lat": 44.526340,
      "lon": -109.056534	
   },
   {
      "name": "Fusignano",
      "lat": 44.465069,
      "lon": 11.957130	
   },
   {
      "name": "Seymour",
      "lat": 44.514992,
      "lon": -88.330383	
   },
   {
      "name": "Gaylord",
      "lat": 44.553020,
      "lon": -94.220528	
   },
   {
      "name": "San Giovanni in Persiceto",
      "lat": 44.639969,
      "lon": 11.184110	
   },
   {
      "name": "Reggio nellEmilia",
      "lat": 44.698250,
      "lon": 10.631250	
   },
   {
      "name": "Ferrara",
      "lat": 44.826778,
      "lon": 11.620710	
   },
   {
      "name": "Carmagnola",
      "lat": 44.847038,
      "lon": 7.718030	
   },
   {
      "name": "Sangano",
      "lat": 45.026138,
      "lon": 7.448120	
   },
   {
      "name": "Giaveno",
      "lat": 45.047039,
      "lon": 7.349220	
   },
   {
      "name": "Piacenza",
      "lat": 45.046761,
      "lon": 9.699370	
   },
   {
      "name": "Villar Focchiardo",
      "lat": 45.112438,
      "lon": 7.238410	
   },
   {
      "name": "East Jordan",
      "lat": 45.158058,
      "lon": -85.124229	
   },
   {
      "name": "Legnago",
      "lat": 45.183182,
      "lon": 11.309100	
   },
   {
      "name": "San Martino in Strada",
      "lat": 45.274971,
      "lon": 9.526360	
   },
   {
      "name": "Lodi",
      "lat": 45.313568,
      "lon": 9.502860	
   },
   {
      "name": "Oak Grove",
      "lat": 45.340801,
      "lon": -93.326897	
   },
   {
      "name": "Crema",
      "lat": 45.358768,
      "lon": 9.668260	
   },
   {
      "name": "Verona",
      "lat": 45.434189,
      "lon": 10.997790	
   },
   {
      "name": "Rho",
      "lat": 45.530869,
      "lon": 9.040140	
   },
   {
      "name": "Creazzo",
      "lat": 45.531990,
      "lon": 11.478500	
   },
   {
      "name": "Dairago",
      "lat": 45.567169,
      "lon": 8.863240	
   },
   {
      "name": "Cinisello Balsamo",
      "lat": 45.557072,
      "lon": 9.221850	
   },
   {
      "name": "Rasnov",
      "lat": 45.583328,
      "lon": 25.450001	
   },
   {
      "name": "Chazelles-sur-Lyon",
      "lat": 45.638062,
      "lon": 4.391300	
   },
   {
      "name": "Brasov",
      "lat": 45.648609,
      "lon": 25.606131	
   },
   {
      "name": "Mozzate",
      "lat": 45.672169,
      "lon": 8.955240	
   },
   {
      "name": "Verano Brianza",
      "lat": 45.688679,
      "lon": 9.224540	
   },
   {
      "name": "Cartigliano",
      "lat": 45.713001,
      "lon": 11.695600	
   },
   {
      "name": "Veniano",
      "lat": 45.719379,
      "lon": 8.989740	
   },
   {
      "name": "Albino",
      "lat": 45.763779,
      "lon": 9.796360	
   },
   {
      "name": "Sibiu",
      "lat": 45.799999,
      "lon": 24.150000	
   },
   {
      "name": "Olgiate Comasco",
      "lat": 45.785381,
      "lon": 8.967640	
   },
   {
      "name": "Lovere",
      "lat": 45.811691,
      "lon": 10.068960	
   },
   {
      "name": "Castione della Presolana",
      "lat": 45.914391,
      "lon": 10.063560	
   },
   {
      "name": "Grosuplje",
      "lat": 45.955559,
      "lon": 14.658890	
   },
   {
      "name": "Caldonazzo",
      "lat": 45.994999,
      "lon": 11.264680	
   },
   {
      "name": "Martigny-Ville",
      "lat": 46.102760,
      "lon": 7.072450	
   },
   {
      "name": "Medvode",
      "lat": 46.133331,
      "lon": 14.433330	
   },
   {
      "name": "Arad",
      "lat": 46.183331,
      "lon": 21.316669	
   },
   {
      "name": "Thoiry",
      "lat": 46.237621,
      "lon": 5.981110	
   },
   {
      "name": "Sciez",
      "lat": 46.329090,
      "lon": 6.379470	
   },
   {
      "name": "Bovec",
      "lat": 46.337502,
      "lon": 13.552780	
   },
   {
      "name": "Falcade",
      "lat": 46.354210,
      "lon": 11.865920	
   },
   {
      "name": "Valdidentro",
      "lat": 46.489010,
      "lon": 10.294050	
   },
   {
      "name": "Bolzano",
      "lat": 46.492722,
      "lon": 11.333580	
   },
   {
      "name": "Letea Veche",
      "lat": 46.549999,
      "lon": 26.950001	
   },
   {
      "name": "Tazlar",
      "lat": 46.548241,
      "lon": 19.514360	
   },
   {
      "name": "Kiskunfelegyhaza",
      "lat": 46.712132,
      "lon": 19.844580	
   },
   {
      "name": "Deutschlandsberg",
      "lat": 46.815281,
      "lon": 15.222220	
   },
   {
      "name": "Kehrsatz",
      "lat": 46.910351,
      "lon": 7.470960	
   },
   {
      "name": "Piatra Neamt",
      "lat": 46.916672,
      "lon": 26.333330	
   },
   {
      "name": "Trouy",
      "lat": 47.011532,
      "lon": 2.360180	
   },
   {
      "name": "Mariupol",
      "lat": 47.066669,
      "lon": 37.500000	
   },
   {
      "name": "Iasi",
      "lat": 47.166672,
      "lon": 27.600000	
   },
   {
      "name": "Nenzing",
      "lat": 47.184361,
      "lon": 9.705390	
   },
   {
      "name": "Zeltweg",
      "lat": 47.183331,
      "lon": 14.750000	
   },
   {
      "name": "Zofingen",
      "lat": 47.287788,
      "lon": 7.945860	
   },
   {
      "name": "Hall in Tirol",
      "lat": 47.283329,
      "lon": 11.516670	
   },
   {
      "name": "Saint-Avertin",
      "lat": 47.363571,
      "lon": 0.739930	
   },
   {
      "name": "Sonthofen",
      "lat": 47.516670,
      "lon": 10.283330	
   },
   {
      "name": "Basel",
      "lat": 47.558399,
      "lon": 7.573270	
   },
   {
      "name": "Rheinfelden (Baden"),
      "lat": 47.566669,
      "lon": 7.800000	
   },
   {
      "name": "Suceava",
      "lat": 47.633331,
      "lon": 26.250000	
   },
   {
      "name": "Tagerwilen",
      "lat": 47.655941,
      "lon": 9.131670	
   },
   {
      "name": "Tautii Magherus",
      "lat": 47.650002,
      "lon": 23.483330	
   },
   {
      "name": "Ternitz",
      "lat": 47.715649,
      "lon": 16.035749	
   },
   {
      "name": "Marktoberdorf",
      "lat": 47.783329,
      "lon": 10.616670	
   },
   {
      "name": "Radauti",
      "lat": 47.849998,
      "lon": 25.916670	
   },
   {
      "name": "Illmensee",
      "lat": 47.866669,
      "lon": 9.383330	
   },
   {
      "name": "Titisee-Neustadt",
      "lat": 47.900002,
      "lon": 8.166670	
   },
   {
      "name": "Sankt Georgen im Attergau",
      "lat": 47.935951,
      "lon": 13.483060	
   },
   {
      "name": "Frankenmarkt",
      "lat": 47.983330,
      "lon": 13.416670	
   },
   {
      "name": "Turkheim",
      "lat": 48.066669,
      "lon": 10.633330	
   },
   {
      "name": "Rottweil",
      "lat": 48.167831,
      "lon": 8.627190	
   },
   {
      "name": "Muenchen",
      "lat": 48.137428,
      "lon": 11.575490	
   },
   {
      "name": "Pressbaum",
      "lat": 48.183331,
      "lon": 16.083330	
   },
   {
      "name": "Messstetten",
      "lat": 48.183331,
      "lon": 8.966670	
   },
   {
      "name": "Grobenzell",
      "lat": 48.200001,
      "lon": 11.366670	
   },
   {
      "name": "Vienna",
      "lat": 48.208488,
      "lon": 16.372080	
   },
   {
      "name": "Ehingen",
      "lat": 48.282589,
      "lon": 9.727490	
   },
   {
      "name": "Pezinok",
      "lat": 48.289860,
      "lon": 17.266640	
   },
   {
      "name": "Deutsch-Wagram",
      "lat": 48.299721,
      "lon": 16.566669	
   },
   {
      "name": "Bisingen",
      "lat": 48.310120,
      "lon": 8.917380	
   },
   {
      "name": "Neufahrn bei Freising",
      "lat": 48.316669,
      "lon": 11.666670	
   },
   {
      "name": "Lahr",
      "lat": 48.349998,
      "lon": 7.866670	
   },
   {
      "name": "Etrechy",
      "lat": 48.494652,
      "lon": 2.194890	
   },
   {
      "name": "Laichingen",
      "lat": 48.489391,
      "lon": 9.686120	
   },
   {
      "name": "Neuffen",
      "lat": 48.554600,
      "lon": 9.375500	
   },
   {
      "name": "Holzgerlingen",
      "lat": 48.639690,
      "lon": 9.011490	
   },
   {
      "name": "Savigny-sur-Orge",
      "lat": 48.676781,
      "lon": 2.348350	
   },
   {
      "name": "Loffenau",
      "lat": 48.772141,
      "lon": 8.384630	
   },
   {
      "name": "Perlesreut",
      "lat": 48.783329,
      "lon": 13.450000	
   },
   {
      "name": "Urbach",
      "lat": 48.816799,
      "lon": 9.576900	
   },
   {
      "name": "Mantes-la-Jolie",
      "lat": 48.983330,
      "lon": 1.716670	
   },
   {
      "name": "Brno",
      "lat": 49.195221,
      "lon": 16.607960	
   },
   {
      "name": "Hassloch",
      "lat": 49.362782,
      "lon": 8.258060	
   },
   {
      "name": "Velke Mezirici",
      "lat": 49.355221,
      "lon": 16.012239	
   },
   {
      "name": "Thionville",
      "lat": 49.366669,
      "lon": 6.166670	
   },
   {
      "name": "Hangard",
      "lat": 49.382599,
      "lon": 7.210460	
   },
   {
      "name": "Schifferstadt",
      "lat": 49.387218,
      "lon": 8.374720	
   },
   {
      "name": "Eppelheim",
      "lat": 49.402500,
      "lon": 8.633060	
   },
   {
      "name": "Ilvesheim",
      "lat": 49.474041,
      "lon": 8.567400	
   },
   {
      "name": "Bad Mergentheim",
      "lat": 49.492500,
      "lon": 9.773610	
   },
   {
      "name": "Obermichelbach",
      "lat": 49.531170,
      "lon": 10.908910	
   },
   {
      "name": "Frankenthal",
      "lat": 49.537220,
      "lon": 8.355000	
   },
   {
      "name": "Ostravice",
      "lat": 49.535099,
      "lon": 18.391640	
   },
   {
      "name": "Herzogenaurach",
      "lat": 49.567982,
      "lon": 10.885650	
   },
   {
      "name": "Nowy Sacz",
      "lat": 49.621769,
      "lon": 20.697050	
   },
   {
      "name": "Stara Ves nad Ondrejnici",
      "lat": 49.727749,
      "lon": 18.188499	
   },
   {
      "name": "Jaslo",
      "lat": 49.745060,
      "lon": 21.472521	
   },
   {
      "name": "Stribro",
      "lat": 49.752941,
      "lon": 13.004090	
   },
   {
      "name": "Eggolsheim",
      "lat": 49.771111,
      "lon": 11.058060	
   },
   {
      "name": "Vitkov",
      "lat": 49.774448,
      "lon": 17.749411	
   },
   {
      "name": "Monchberg",
      "lat": 49.791389,
      "lon": 9.265830	
   },
   {
      "name": "Guntersblum",
      "lat": 49.797501,
      "lon": 8.345560	
   },
   {
      "name": "Dieburg",
      "lat": 49.898891,
      "lon": 8.844440	
   },
   {
      "name": "Opava",
      "lat": 49.938660,
      "lon": 17.902571	
   },
   {
      "name": "Elkford",
      "lat": 50.050072,
      "lon": -114.885399	
   },
   {
      "name": "Debica",
      "lat": 50.051460,
      "lon": 21.411409	
   },
   {
      "name": "Prague",
      "lat": 50.088039,
      "lon": 14.420760	
   },
   {
      "name": "Eschborn",
      "lat": 50.133331,
      "lon": 8.550000	
   },
   {
      "name": "Cambrai",
      "lat": 50.166672,
      "lon": 3.233330	
   },
   {
      "name": "Oberursel",
      "lat": 50.200001,
      "lon": 8.583330	
   },
   {
      "name": "Lezajsk",
      "lat": 50.262569,
      "lon": 22.419319	
   },
   {
      "name": "Bouchain",
      "lat": 50.285191,
      "lon": 3.314910	
   },
   {
      "name": "Boussois",
      "lat": 50.289070,
      "lon": 4.041170	
   },
   {
      "name": "Abscon",
      "lat": 50.333328,
      "lon": 3.300000	
   },
   {
      "name": "Saint Stephen",
      "lat": 50.333328,
      "lon": -4.900000	
   },
   {
      "name": "Hellenthal",
      "lat": 50.483330,
      "lon": 6.433330	
   },
   {
      "name": "Crottendorf",
      "lat": 50.516670,
      "lon": 12.950000	
   },
   {
      "name": "Annoeullin",
      "lat": 50.529251,
      "lon": 2.931800	
   },
   {
      "name": "Staszow",
      "lat": 50.563068,
      "lon": 21.165930	
   },
   {
      "name": "Stalowa Wola",
      "lat": 50.582859,
      "lon": 22.053341	
   },
   {
      "name": "Vrchlabi",
      "lat": 50.626968,
      "lon": 15.609370	
   },
   {
      "name": "Karpacz",
      "lat": 50.776691,
      "lon": 15.755940	
   },
   {
      "name": "Kielce",
      "lat": 50.870331,
      "lon": 20.627520	
   },
   {
      "name": "Beek",
      "lat": 50.940830,
      "lon": 5.797220	
   },
   {
      "name": "Suchedniow",
      "lat": 51.047760,
      "lon": 20.829220	
   },
   {
      "name": "Dunkerque",
      "lat": 51.049999,
      "lon": 2.366670	
   },
   {
      "name": "Leopoldsburg",
      "lat": 51.116669,
      "lon": 5.250000	
   },
   {
      "name": "Headcorn",
      "lat": 51.169659,
      "lon": 0.624330	
   },
   {
      "name": "Willich",
      "lat": 51.266670,
      "lon": 6.550000	
   },
   {
      "name": "Fleet",
      "lat": 51.283329,
      "lon": -0.833330	
   },
   {
      "name": "Whyteleafe",
      "lat": 51.308079,
      "lon": -0.084290	
   },
   {
      "name": "Szczercow",
      "lat": 51.333191,
      "lon": 19.109770	
   },
   {
      "name": "Grefrath",
      "lat": 51.336300,
      "lon": 6.340720	
   },
   {
      "name": "Stratfield Mortimer",
      "lat": 51.373390,
      "lon": -1.034950	
   },
   {
      "name": "Birchington-on-Sea",
      "lat": 51.375751,
      "lon": 1.304800	
   },
   {
      "name": "Radom",
      "lat": 51.402531,
      "lon": 21.147141	
   },
   {
      "name": "Pionki",
      "lat": 51.476040,
      "lon": 21.449949	
   },
   {
      "name": "Upminster",
      "lat": 51.555939,
      "lon": 0.255600	
   },
   {
      "name": "Cranham",
      "lat": 51.565651,
      "lon": 0.265900	
   },
   {
      "name": "Kozienice",
      "lat": 51.582939,
      "lon": 21.547791	
   },
   {
      "name": "Rayleigh",
      "lat": 51.585709,
      "lon": 0.604590	
   },
   {
      "name": "Chepstow",
      "lat": 51.640869,
      "lon": -2.676830	
   },
   {
      "name": "Headwood Bolevad",
      "lat": 51.677078,
      "lon": -0.438250	
   },
   {
      "name": "Hengoed",
      "lat": 51.650829,
      "lon": -3.231670	
   },
   {
      "name": "Little Chalfont",
      "lat": 51.668289,
      "lon": -0.570380	
   },
   {
      "name": "Lodz",
      "lat": 51.750000,
      "lon": 19.466669	
   },
   {
      "name": "Rees",
      "lat": 51.766670,
      "lon": 6.400000	
   },
   {
      "name": "Steinheim",
      "lat": 51.870659,
      "lon": 9.091360	
   },
   {
      "name": "Brielle",
      "lat": 51.901669,
      "lon": 4.162500	
   },
   {
      "name": "Maassluis",
      "lat": 51.923328,
      "lon": 4.250000	
   },
   {
      "name": "Klein Wanzleben",
      "lat": 52.066669,
      "lon": 11.366670	
   },
   {
      "name": "Utrecht",
      "lat": 52.090832,
      "lon": 5.122220	
   },
   {
      "name": "Clare",
      "lat": 52.078609,
      "lon": 0.581670	
   },
   {
      "name": "Kesgrave",
      "lat": 52.062408,
      "lon": 1.236500	
   },
   {
      "name": "Newport Pagnell",
      "lat": 52.087311,
      "lon": -0.722180	
   },
   {
      "name": "Tra Mhor",
      "lat": 52.162350,
      "lon": -7.152440	
   },
   {
      "name": "Stowmarket",
      "lat": 52.188931,
      "lon": 0.997740	
   },
   {
      "name": "Wettringen",
      "lat": 52.209389,
      "lon": 7.318950	
   },
   {
      "name": "Hoofddorp",
      "lat": 52.302502,
      "lon": 4.688890	
   },
   {
      "name": "Jablonna",
      "lat": 52.378849,
      "lon": 20.917450	
   },
   {
      "name": "Schoneiche",
      "lat": 52.466671,
      "lon": 13.683330	
   },
   {
      "name": "Berlin Koepenick",
      "lat": 52.442539,
      "lon": 13.582280	
   },
   {
      "name": "Feltwell",
      "lat": 52.485809,
      "lon": 0.519450	
   },
   {
      "name": "Wathlingen",
      "lat": 52.533329,
      "lon": 10.150000	
   },
   {
      "name": "Whittlesey",
      "lat": 52.558041,
      "lon": -0.130160	
   },
   {
      "name": "Berlin",
      "lat": 52.524368,
      "lon": 13.410530	
   },
   {
      "name": "Berlin Reinickendorf",
      "lat": 52.566669,
      "lon": 13.333330	
   },
   {
      "name": "Carlow",
      "lat": 52.840832,
      "lon": -6.926110	
   },
   {
      "name": "Heacham",
      "lat": 52.907822,
      "lon": 0.493870	
   },
   {
      "name": "West Bridgford",
      "lat": 52.929790,
      "lon": -1.125370	
   },
   {
      "name": "Chojna",
      "lat": 52.963890,
      "lon": 14.427970	
   },
   {
      "name": "Buxton",
      "lat": 53.257408,
      "lon": -1.909820	
   },
   {
      "name": "West Kirby",
      "lat": 53.373020,
      "lon": -3.184170	
   },
   {
      "name": "Moreton",
      "lat": 53.400002,
      "lon": -3.116670	
   },
   {
      "name": "Didsbury",
      "lat": 53.416981,
      "lon": -2.231450	
   },
   {
      "name": "Chorlton cum Hardy",
      "lat": 53.435051,
      "lon": -2.263100	
   },
   {
      "name": "Glossop",
      "lat": 53.443249,
      "lon": -1.949000	
   },
   {
      "name": "Grudziadz",
      "lat": 53.484112,
      "lon": 18.753660	
   },
   {
      "name": "An Muileann gCearr",
      "lat": 53.533329,
      "lon": -7.350000	
   },
   {
      "name": "South Elmsall",
      "lat": 53.597092,
      "lon": -1.280340	
   },
   {
      "name": "Chojnice",
      "lat": 53.695541,
      "lon": 17.557011	
   },
   {
      "name": "Bargteheide",
      "lat": 53.733330,
      "lon": 10.266670	
   },
   {
      "name": "Claremorris",
      "lat": 53.716671,
      "lon": -9.000000	
   },
   {
      "name": "Shipley",
      "lat": 53.833328,
      "lon": -1.766670	
   },
   {
      "name": "Blackpool",
      "lat": 53.816669,
      "lon": -3.050000	
   },
   {
      "name": "Mragowo",
      "lat": 53.864368,
      "lon": 21.305071	
   },
   {
      "name": "Munsterdorf",
      "lat": 53.902321,
      "lon": 9.541230	
   },
   {
      "name": "Easingwold",
      "lat": 54.119099,
      "lon": -1.192250	
   },
   {
      "name": "Jevenstedt",
      "lat": 54.233330,
      "lon": 9.666670	
   },
   {
      "name": "Cold Lake",
      "lat": 54.450180,
      "lon": -110.201698	
   },
   {
      "name": "Cockermouth",
      "lat": 54.662090,
      "lon": -3.360860	
   },
   {
      "name": "Valleyview",
      "lat": 55.066730,
      "lon": -117.285851	
   },
   {
      "name": "La Ronge",
      "lat": 55.100128,
      "lon": -105.284218	
   },
   {
      "name": "Koge",
      "lat": 55.458019,
      "lon": 12.182140	
   },
   {
      "name": "Jonkoping",
      "lat": 57.781448,
      "lon": 14.156180	
   },
   {
      "name": "Tartu",
      "lat": 58.380619,
      "lon": 26.725090	
   },
   {
      "name": "Arendal",
      "lat": 58.461510,
      "lon": 8.772530	
   },
   {
      "name": "Degerfors",
      "lat": 59.237968,
      "lon": 14.430770	
   },
   {
      "name": "Moss",
      "lat": 59.434029,
      "lon": 10.657710	
   },
   {
      "name": "Dalby",
      "lat": 59.533329,
      "lon": 17.350000	
   },
   {
      "name": "Teekkarikylae",
      "lat": 60.189590,
      "lon": 24.835020	
   },
   {
      "name": "Lillehammer",
      "lat": 61.115139,
      "lon": 10.466280	
   },
   {
      "name": "Molde",
      "lat": 62.737518,
      "lon": 7.159120	
   },
   {
      "name": "Keflavik",
      "lat": 64.004921,
      "lon": -22.562420	
   },
   {
      "name": "Lohtaja",
      "lat": 64.024719,
      "lon": 23.504820	
   },
   {
      "name": "North Pole",
      "lat": 64.751106,
      "lon": -147.349442	
   },
   {
      "name": "Fauske",
      "lat": 67.258827,
      "lon": 15.391810	
   },
   {
      "name": "Inuvik",
      "lat": 68.349861,
      "lon": -133.721817	
   },
   {
      "name": "Nuiqsut",
      "lat": 70.217499,
      "lon": -150.976395	
   },
   {
      "name": "SantOreste",
      "lat": 42.234718,
      "lon": 12.519370	
   },
   {
      "name": "Villanova dAlbenga",
      "lat": 44.047249,
      "lon": 8.143360	
   },
   {
      "name": "Villanova sullArda",
      "lat": 45.026470,
      "lon": 9.998470	
   },
   {
      "name": "Cortina dAmpezzo",
      "lat": 46.536900,
      "lon": 12.139030	
   },
   {
      "name": "Dedenevo",
      "lat": 56.250000,
      "lon": 37.516670	
   },
   {
      "name": "Kokoshkino",
      "lat": 55.597691,
      "lon": 37.169498	
   },
   {
      "name": "Nizhnyaya Maktama",
      "lat": 54.863560,
      "lon": 52.428101	
   },
   {
      "name": "Kamenka",
      "lat": 43.533329,
      "lon": 43.516670	
   },
   {
      "name": "Murino",
      "lat": 60.049438,
      "lon": 30.445869	
   },
   {
      "name": "Shchekino",
      "lat": 54.009171,
      "lon": 37.511940	
   },
   {
      "name": "Noginsk",
      "lat": 55.866470,
      "lon": 38.443802	
   },
   {
      "name": "Avsyunino",
      "lat": 55.565159,
      "lon": 39.123241	
   },
   {
      "name": "Aysha",
      "lat": 55.870350,
      "lon": 48.631870	
   },
   {
      "name": "Vladimir",
      "lat": 56.136551,
      "lon": 40.396580	
   },
   {
      "name": "Simferopol",
      "lat": 44.957191,
      "lon": 34.110790	
   },
   {
      "name": "Starodzhereliyevskaya",
      "lat": 45.475990,
      "lon": 38.296799	
   },
   {
      "name": "Lenina",
      "lat": 46.066669,
      "lon": 39.783329	
   },
   {
      "name": "Askaniya Nova",
      "lat": 46.451351,
      "lon": 33.868889	
   },
   {
      "name": "Khartsyzsk",
      "lat": 48.042431,
      "lon": 38.147282	
   },
   {
      "name": "Znamensk",
      "lat": 48.584202,
      "lon": 45.733799	
   },
   {
      "name": "Sulaymaniyah",
      "lat": 35.561131,
      "lon": 45.437489	
   },
   {
      "name": "Pskov",
      "lat": 57.813599,
      "lon": 28.349600	
   },
   {
      "name": "Mirzapur",
      "lat": 25.150000,
      "lon": 82.583328	
   },
   {
      "name": "Haveri",
      "lat": 14.800000,
      "lon": 75.400002	
   },
   {
      "name": "Tyumen",
      "lat": 57.152222,
      "lon": 65.527222	
   },
   {
      "name": "Rondonopolis",
      "lat": -16.470831,
      "lon": -54.635559	
   },
   {
      "name": "Pune",
      "lat": 18.519569,
      "lon": 73.855347	
   },
   {
      "name": "Hurfeish",
      "lat": 33.017109,
      "lon": 35.348351	
   },
   {
      "name": "Patna",
      "lat": 25.600000,
      "lon": 85.116669	
   },
   {
      "name": "Firsanovka",
      "lat": 55.953609,
      "lon": 37.240829	
   },
   {
      "name": "Kromy",
      "lat": 52.687618,
      "lon": 35.766651	
   },
   {
      "name": "Yoshkar-Ola",
      "lat": 56.638771,
      "lon": 47.890781	
   },
   {
      "name": "Maykop",
      "lat": 44.607780,
      "lon": 40.105831	
   },
   {
      "name": "Kotelniki",
      "lat": 55.635460,
      "lon": 37.844501	
   },
   {
      "name": "Saransk",
      "lat": 54.183800,
      "lon": 45.174900	
   },
   {
      "name": "Pravda",
      "lat": 46.939560,
      "lon": 142.009033	
   },
   {
      "name": "Abakan",
      "lat": 53.715561,
      "lon": 91.429169	
   },
   {
      "name": "Yakutsk",
      "lat": 62.033890,
      "lon": 129.733063	
   },
   {
      "name": "Pflugerville",
      "lat": 30.439369,
      "lon": -97.620003	
   },
   {
      "name": "Tyndall Air Force Base",
      "lat": 30.085350,
      "lon": -85.607307	
   },